% program   : RTKPOST ver.demo5 b34f
% inp file  : C:\gps\python\rtklib-py\data\u-blox\rover.obs
% inp file  : C:\gps\python\rtklib-py\data\u-blox\tmg23590.obs
% inp file  : C:\gps\python\rtklib-py\data\u-blox\rover.nav
% obs start : 2020/12/24 21:28:42.0 GPST (week2137 422922.0s)
% obs end   : 2020/12/24 22:44:02.0 GPST (week2137 427442.0s)
% pos mode  : Kinematic
% freqs     : L1+L2/E5b
% solution  : Forward
% elev mask : 15.0 deg
% dynamics  : on
% tidecorr  : off
% ionos opt : Broadcast
% tropo opt : Saastamoinen
% ephemeris : Broadcast
% navi sys  : GPS Galileo
% amb res   : Fix and Hold
% val thres : 3.0
% antenna1  :                       ( 0.0000  0.0000  0.0000)
% antenna2  :                       ( 0.0000  0.0000  0.0000)
% ref pos   : 40.129954154 -105.233055352  1669.9904
%
% (lat/lon/height=WGS84/ellipsoidal,Q=1:fix,2:float,3:sbas,4:dgps,5:single,6:ppp,ns=# of satellites)
%  GPST                  latitude(deg) longitude(deg)  height(m)   Q  ns   sdn(m)   sde(m)   sdu(m)  sdne(m)  sdeu(m)  sdun(m) age(s)  ratio
2020/12/24 21:28:42.000   40.097025378 -105.147247371  1578.8456   2  11   1.4193   1.3913   2.9108  -0.4639   0.9795  -1.1219   0.00    0.0
2020/12/24 21:28:43.000   40.097025245 -105.147247922  1578.8200   2  11   1.0348   1.0174   2.1384  -0.3149   0.7394  -0.8049   0.00    0.0
2020/12/24 21:28:44.000   40.097025049 -105.147248121  1578.7980   2  11   0.8535   0.8406   1.7685  -0.2522   0.6176  -0.6597   0.00    0.0
2020/12/24 21:28:45.000   40.097024779 -105.147248149  1578.8372   2  11   0.7426   0.7324   1.5405  -0.2159   0.5408  -0.5718   0.00    0.0
2020/12/24 21:28:46.000   40.097024661 -105.147248429  1578.8795   2  11   0.6656   0.6575   1.3816  -0.1915   0.4866  -0.5112   0.00    0.0
2020/12/24 21:28:47.000   40.097024540 -105.147248336  1578.9148   2  11   0.6081   0.6016   1.2624  -0.1736   0.4457  -0.4662   0.00    0.0
2020/12/24 21:28:48.000   40.097024573 -105.147248330  1578.9292   2  11   0.5629   0.5579   1.1685  -0.1597   0.4133  -0.4308   0.00    0.0
2020/12/24 21:28:49.000   40.097024602 -105.147248189  1578.9204   2  11   0.5261   0.5225   1.0919  -0.1485   0.3867  -0.4021   0.00    0.0
2020/12/24 21:28:50.000   40.097024541 -105.147247895  1578.9251   2  11   0.4954   0.4930   1.0277  -0.1392   0.3643  -0.3781   0.00    0.0
2020/12/24 21:28:51.000   40.097024436 -105.147247659  1578.9101   2  11   0.4691   0.4680   0.9727  -0.1313   0.3452  -0.3576   0.00    0.0
2020/12/24 21:28:52.000   40.097024418 -105.147247469  1578.8926   2  11   0.4464   0.4465   0.9248  -0.1245   0.3285  -0.3398   0.00    0.0
2020/12/24 21:28:53.000   40.097024403 -105.147247297  1578.8883   2  11   0.4263   0.4276   0.8826  -0.1184   0.3137  -0.3241   0.00    0.0
2020/12/24 21:28:54.000   40.097024349 -105.147247252  1578.8620   2  11   0.4084   0.4109   0.8449  -0.1130   0.3005  -0.3101   0.00    0.0
2020/12/24 21:28:55.000   40.097024265 -105.147247270  1578.8384   2  11   0.3923   0.3960   0.8109  -0.1082   0.2886  -0.2975   0.00    0.0
2020/12/24 21:28:56.000   40.097024075 -105.147247248  1578.8371   2  11   0.3777   0.3826   0.7800  -0.1037   0.2777  -0.2861   0.00    0.0
2020/12/24 21:28:57.000   40.097023940 -105.147247227  1578.8390   2  11   0.3644   0.3704   0.7517  -0.0997   0.2678  -0.2756   0.00    0.0
2020/12/24 21:28:58.000   40.097023782 -105.147247206  1578.8291   2  11   0.3521   0.3593   0.7256  -0.0959   0.2586  -0.2659   0.00    0.0
2020/12/24 21:28:59.000   40.097023641 -105.147247180  1578.7963   2  11   0.3408   0.3491   0.7014  -0.0924   0.2501  -0.2570   0.00    0.0
2020/12/24 21:29:00.000   40.097023568 -105.147247099  1578.7855   2  11   0.3303   0.3398   0.6789  -0.0892   0.2421  -0.2487   0.00    0.0
2020/12/24 21:29:01.000   40.097023495 -105.147247029  1578.7858   2  11   0.3204   0.3311   0.6578  -0.0861   0.2347  -0.2409   0.00    0.0
2020/12/24 21:29:02.000   40.097023446 -105.147246935  1578.7887   2  11   0.3112   0.3230   0.6380  -0.0833   0.2277  -0.2336   0.00    0.0
2020/12/24 21:29:03.000   40.097023367 -105.147246851  1578.8027   2  11   0.3025   0.3155   0.6194  -0.0805   0.2211  -0.2268   0.00    0.0
2020/12/24 21:29:04.000   40.097023289 -105.147246745  1578.8030   2  11   0.2943   0.3085   0.6018  -0.0780   0.2149  -0.2203   0.00    0.0
2020/12/24 21:29:05.000   40.097023192 -105.147246649  1578.8131   2  11   0.2865   0.3019   0.5851  -0.0755   0.2090  -0.2141   0.00    0.0
2020/12/24 21:29:06.000   40.097023021 -105.147246585  1578.7868   2  11   0.2792   0.2957   0.5693  -0.0732   0.2034  -0.2083   0.00    0.0
2020/12/24 21:29:07.000   40.097022929 -105.147246571  1578.7704   2  11   0.2722   0.2898   0.5542  -0.0709   0.1981  -0.2028   0.00    0.0
2020/12/24 21:29:08.000   40.097022870 -105.147246537  1578.7544   2  11   0.2655   0.2843   0.5398  -0.0688   0.1930  -0.1975   0.00    0.0
2020/12/24 21:29:09.000   40.097022763 -105.147246500  1578.7411   2  11   0.2591   0.2790   0.5261  -0.0667   0.1882  -0.1924   0.00    0.0
2020/12/24 21:29:10.000   40.097022637 -105.147246493  1578.7124   2  11   0.2531   0.2741   0.5129  -0.0647   0.1835  -0.1876   0.00    0.0
2020/12/24 21:29:11.000   40.097022581 -105.147246531  1578.6793   2  11   0.2472   0.2693   0.5003  -0.0628   0.1790  -0.1830   0.00    0.0
2020/12/24 21:29:12.000   40.097022579 -105.147246550  1578.6343   2  11   0.2416   0.2648   0.4883  -0.0610   0.1748  -0.1785   0.00    0.0
2020/12/24 21:29:13.000   40.097022498 -105.147246522  1578.6223   2  11   0.2362   0.2605   0.4767  -0.0592   0.1706  -0.1743   0.00    0.0
2020/12/24 21:29:14.000   40.097022417 -105.147246499  1578.6044   2  11   0.2310   0.2564   0.4655  -0.0575   0.1667  -0.1702   0.00    0.0
2020/12/24 21:29:15.000   40.097022417 -105.147246508  1578.5617   2  11   0.2261   0.2525   0.4548  -0.0558   0.1629  -0.1662   0.00    0.0
2020/12/24 21:29:16.000   40.097022310 -105.147246494  1578.5422   2  11   0.2212   0.2487   0.4444  -0.0542   0.1592  -0.1624   0.00    0.0
2020/12/24 21:29:17.000   40.097022289 -105.147246529  1578.5270   2  11   0.2166   0.2451   0.4344  -0.0526   0.1556  -0.1588   0.00    1.8
2020/12/24 21:29:18.000   40.097022211 -105.147246581  1578.5043   2  11   0.2121   0.2417   0.4248  -0.0511   0.1522  -0.1552   0.00    1.8
2020/12/24 21:29:19.000   40.097022143 -105.147246620  1578.4872   2  11   0.2078   0.2384   0.4155  -0.0496   0.1489  -0.1518   0.00    1.9
2020/12/24 21:29:20.000   40.097022113 -105.147246684  1578.4628   2  11   0.2036   0.2352   0.4065  -0.0482   0.1457  -0.1485   0.00    1.9
2020/12/24 21:29:21.000   40.097022116 -105.147246761  1578.4362   2  11   0.1995   0.2321   0.3978  -0.0468   0.1426  -0.1454   0.00    1.9
2020/12/24 21:29:22.000   40.097022063 -105.147246786  1578.4239   2  11   0.1956   0.2291   0.3894  -0.0454   0.1396  -0.1423   0.00    2.0
2020/12/24 21:29:23.000   40.097022108 -105.147246875  1578.4038   2  11   0.1918   0.2262   0.3812  -0.0441   0.1367  -0.1393   0.00    2.0
2020/12/24 21:29:24.000   40.097022080 -105.147246946  1578.3879   2  11   0.1881   0.2235   0.3734  -0.0427   0.1339  -0.1364   0.00    2.1
2020/12/24 21:29:25.000   40.097022118 -105.147246989  1578.3740   2  11   0.1845   0.2208   0.3657  -0.0415   0.1312  -0.1336   0.00    2.1
2020/12/24 21:29:26.000   40.097022161 -105.147247084  1578.3709   2  11   0.1811   0.2182   0.3583  -0.0402   0.1286  -0.1309   0.00    2.1
2020/12/24 21:29:27.000   40.097022178 -105.147247179  1578.3559   2  11   0.1777   0.2157   0.3511  -0.0390   0.1260  -0.1283   0.00    2.2
2020/12/24 21:29:28.000   40.097022243 -105.147247300  1578.3417   2  11   0.1744   0.2133   0.3442  -0.0378   0.1235  -0.1257   0.00    2.3
2020/12/24 21:29:29.000   40.097022293 -105.147247363  1578.3246   2  11   0.1712   0.2110   0.3374  -0.0367   0.1211  -0.1233   0.00    2.3
2020/12/24 21:29:30.000   40.097022315 -105.147247437  1578.3108   2  11   0.1681   0.2087   0.3309  -0.0355   0.1188  -0.1209   0.00    2.4
2020/12/24 21:29:31.000   40.097022269 -105.147247546  1578.2873   2  11   0.1651   0.2065   0.3245  -0.0344   0.1165  -0.1185   0.00    2.4
2020/12/24 21:29:32.000   40.097022275 -105.147247641  1578.2661   2  11   0.1622   0.2043   0.3183  -0.0333   0.1143  -0.1163   0.00    2.5
2020/12/24 21:29:33.000   40.097022240 -105.147247714  1578.2653   2  11   0.1593   0.2022   0.3123  -0.0322   0.1122  -0.1141   0.00    2.5
2020/12/24 21:29:34.000   40.097022192 -105.147247763  1578.2645   2  11   0.1565   0.2002   0.3065  -0.0312   0.1101  -0.1119   0.00    2.6
2020/12/24 21:29:35.000   40.097022209 -105.147247843  1578.2552   2  11   0.1538   0.1983   0.3008  -0.0301   0.1080  -0.1099   0.00    2.7
2020/12/24 21:29:36.000   40.097022194 -105.147247900  1578.2603   2  11   0.1512   0.1963   0.2953  -0.0291   0.1061  -0.1078   0.00    2.7
2020/12/24 21:29:37.000   40.097022200 -105.147247969  1578.2563   2  11   0.1486   0.1945   0.2899  -0.0281   0.1042  -0.1059   0.00    2.8
2020/12/24 21:29:38.000   40.097022185 -105.147248031  1578.2496   2  11   0.1461   0.1927   0.2847  -0.0271   0.1023  -0.1040   0.00    2.8
2020/12/24 21:29:39.000   40.097022153 -105.147248076  1578.2576   2  11   0.1437   0.1909   0.2796  -0.0261   0.1005  -0.1021   0.00    2.9
2020/12/24 21:29:40.000   40.097022127 -105.147248139  1578.2620   2  11   0.1413   0.1892   0.2746  -0.0252   0.0987  -0.1003   0.00    2.9
2020/12/24 21:29:41.000   40.097022115 -105.147248187  1578.2607   2  11   0.1390   0.1875   0.2698  -0.0242   0.0970  -0.0985   0.00    2.9
2020/12/24 21:29:42.000   40.097022054 -105.147248232  1578.2603   2  11   0.1367   0.1859   0.2651  -0.0233   0.0953  -0.0968   0.00    2.9
2020/12/24 21:29:43.000   40.097022029 -105.147248288  1578.2618   2  11   0.1345   0.1843   0.2606  -0.0223   0.0937  -0.0952   0.00    2.9
2020/12/24 21:29:44.000   40.097022013 -105.147248322  1578.2635   2  11   0.1324   0.1827   0.2561  -0.0214   0.0921  -0.0935   0.00    2.9
2020/12/24 21:29:45.000   40.097021974 -105.147248323  1578.2720   2  11   0.1303   0.1812   0.2518  -0.0205   0.0905  -0.0920   0.00    2.9
2020/12/24 21:29:46.000   40.097021945 -105.147248361  1578.2708   2  11   0.1282   0.1797   0.2476  -0.0195   0.0890  -0.0904   0.00    2.9
2020/12/24 21:29:47.000   40.097021925 -105.147248390  1578.2692   2  11   0.1262   0.1782   0.2434  -0.0186   0.0875  -0.0889   0.00    2.9
2020/12/24 21:29:48.000   40.097021949 -105.147248435  1578.2635   2  11   0.1243   0.1768   0.2394  -0.0177   0.0861  -0.0875   0.00    3.0
2020/12/24 21:29:49.000   40.097021936 -105.147248464  1578.2648   2  11   0.1224   0.1754   0.2355  -0.0168   0.0847  -0.0860   0.00    3.0
2020/12/24 21:29:50.000   40.097023811 -105.147249852  1578.1210   1  11   0.0061   0.0059   0.0135  -0.0020   0.0040  -0.0048   0.00    3.0
2020/12/24 21:29:51.000   40.097023811 -105.147249844  1578.1246   1  11   0.0061   0.0059   0.0135  -0.0020   0.0040  -0.0048   0.00    3.1
2020/12/24 21:29:52.000   40.097023826 -105.147249862  1578.1200   1  11   0.0061   0.0059   0.0135  -0.0020   0.0040  -0.0048   0.00    3.1
2020/12/24 21:29:53.000   40.097023831 -105.147249856  1578.1235   1  11   0.0061   0.0059   0.0135  -0.0020   0.0040  -0.0048   0.00    3.1
2020/12/24 21:29:54.000   40.097023827 -105.147249861  1578.1244   1  11   0.0061   0.0059   0.0135  -0.0020   0.0040  -0.0048   0.00    3.2
2020/12/24 21:29:55.000   40.097023815 -105.147249858  1578.1250   1  11   0.0061   0.0059   0.0135  -0.0020   0.0040  -0.0048   0.00    3.2
2020/12/24 21:29:56.000   40.097023818 -105.147249858  1578.1243   1  11   0.0061   0.0059   0.0135  -0.0020   0.0040  -0.0048   0.00    3.2
2020/12/24 21:29:57.000   40.097023811 -105.147249856  1578.1232   1  11   0.0061   0.0059   0.0135  -0.0020   0.0040  -0.0048   0.00    3.3
2020/12/24 21:29:58.000   40.097023812 -105.147249838  1578.1248   1  11   0.0061   0.0059   0.0135  -0.0020   0.0040  -0.0048   0.00    3.3
2020/12/24 21:29:59.000   40.097023804 -105.147249840  1578.1215   1  11   0.0061   0.0059   0.0135  -0.0020   0.0040  -0.0048   0.00    3.4
2020/12/24 21:30:00.000   40.097023810 -105.147249849  1578.1257   1  11   0.0061   0.0059   0.0135  -0.0020   0.0040  -0.0048   0.00    3.4
2020/12/24 21:30:01.000   40.097023801 -105.147249855  1578.1247   1  11   0.0061   0.0059   0.0135  -0.0020   0.0040  -0.0048   0.00    3.5
2020/12/24 21:30:02.000   40.097023804 -105.147249860  1578.1236   1  11   0.0061   0.0059   0.0135  -0.0020   0.0040  -0.0048   0.00    3.5
2020/12/24 21:30:03.000   40.097023792 -105.147249826  1578.1261   1  11   0.0061   0.0059   0.0135  -0.0020   0.0040  -0.0048   0.00    3.6
2020/12/24 21:30:04.000   40.097023807 -105.147249840  1578.1272   1  11   0.0061   0.0059   0.0135  -0.0020   0.0040  -0.0048   0.00    3.7
2020/12/24 21:30:05.000   40.097023814 -105.147249849  1578.1242   1  11   0.0061   0.0059   0.0135  -0.0020   0.0040  -0.0048   0.00    3.7
2020/12/24 21:30:06.000   40.097023806 -105.147249835  1578.1248   1  11   0.0061   0.0059   0.0135  -0.0020   0.0040  -0.0048   0.00    3.8
2020/12/24 21:30:07.000   40.097023814 -105.147249842  1578.1238   1  11   0.0061   0.0059   0.0135  -0.0020   0.0040  -0.0048   0.00    3.9
2020/12/24 21:30:08.000   40.097023808 -105.147249838  1578.1242   1  11   0.0061   0.0059   0.0135  -0.0020   0.0040  -0.0048   0.00    3.9
2020/12/24 21:30:09.000   40.097023808 -105.147249831  1578.1266   1  11   0.0061   0.0059   0.0135  -0.0020   0.0040  -0.0048   0.00    4.0
2020/12/24 21:30:10.000   40.097023803 -105.147249846  1578.1266   1  11   0.0061   0.0059   0.0135  -0.0020   0.0040  -0.0048   0.00    9.1
2020/12/24 21:30:11.000   40.097023806 -105.147249858  1578.1255   1  11   0.0061   0.0059   0.0135  -0.0020   0.0040  -0.0048   0.00   10.2
2020/12/24 21:30:12.000   40.097023807 -105.147249848  1578.1256   1  11   0.0061   0.0059   0.0135  -0.0020   0.0041  -0.0048   0.00   11.2
2020/12/24 21:30:13.000   40.097023822 -105.147249854  1578.1255   1  11   0.0061   0.0059   0.0135  -0.0020   0.0041  -0.0048   0.00   12.2
2020/12/24 21:30:14.000   40.097023809 -105.147249858  1578.1270   1  12   0.0061   0.0059   0.0135  -0.0020   0.0041  -0.0048   0.00   13.2
2020/12/24 21:30:15.000   40.097023820 -105.147249852  1578.1269   1  12   0.0061   0.0059   0.0132  -0.0019   0.0042  -0.0050   0.00   14.2
2020/12/24 21:30:16.000   40.097023822 -105.147249849  1578.1234   1  12   0.0061   0.0059   0.0131  -0.0019   0.0043  -0.0051   0.00   15.1
2020/12/24 21:30:17.000   40.097023817 -105.147249852  1578.1261   1  12   0.0061   0.0059   0.0130  -0.0019   0.0043  -0.0051   0.00   16.1
2020/12/24 21:30:18.000   40.097023810 -105.147249850  1578.1297   1  12   0.0061   0.0059   0.0130  -0.0019   0.0043  -0.0052   0.00   17.1
2020/12/24 21:30:19.000   40.097023814 -105.147249861  1578.1278   1  12   0.0061   0.0059   0.0129  -0.0019   0.0043  -0.0052   0.00   18.0
2020/12/24 21:30:20.000   40.097023806 -105.147249834  1578.1260   1  12   0.0061   0.0059   0.0128  -0.0018   0.0044  -0.0052   0.00    3.3
2020/12/24 21:30:21.000   40.097023806 -105.147249849  1578.1232   1  12   0.0061   0.0059   0.0128  -0.0018   0.0044  -0.0052   0.00    3.7
2020/12/24 21:30:22.000   40.097023797 -105.147249845  1578.1247   1  12   0.0061   0.0059   0.0128  -0.0018   0.0044  -0.0052   0.00    4.0
2020/12/24 21:30:23.000   40.097023812 -105.147249840  1578.1281   1  12   0.0061   0.0059   0.0128  -0.0018   0.0044  -0.0052   0.00    4.3
2020/12/24 21:30:24.000   40.097023803 -105.147249859  1578.1249   1  12   0.0061   0.0059   0.0128  -0.0018   0.0044  -0.0052   0.00    4.7
2020/12/24 21:30:25.000   40.097023814 -105.147249847  1578.1237   1  12   0.0061   0.0059   0.0128  -0.0018   0.0044  -0.0052   0.00    5.0
2020/12/24 21:30:26.000   40.097023805 -105.147249866  1578.1219   1  12   0.0061   0.0059   0.0128  -0.0018   0.0044  -0.0052   0.00    5.3
2020/12/24 21:30:27.000   40.097023825 -105.147249856  1578.1242   1  12   0.0061   0.0059   0.0128  -0.0018   0.0044  -0.0052   0.00    5.6
2020/12/24 21:30:28.000   40.097023819 -105.147249878  1578.1219   1  12   0.0061   0.0059   0.0128  -0.0018   0.0044  -0.0052   0.00    5.9
2020/12/24 21:30:29.000   40.097023822 -105.147249857  1578.1226   1  12   0.0061   0.0059   0.0128  -0.0018   0.0044  -0.0052   0.00    6.2
2020/12/24 21:30:30.000   40.097023814 -105.147249851  1578.1276   1  12   0.0061   0.0059   0.0128  -0.0018   0.0044  -0.0052   0.00    6.5
2020/12/24 21:30:31.000   40.097023824 -105.147249854  1578.1229   1  12   0.0061   0.0059   0.0128  -0.0018   0.0044  -0.0052   0.00    6.8
2020/12/24 21:30:32.000   40.097023822 -105.147249855  1578.1240   1  12   0.0061   0.0059   0.0128  -0.0018   0.0044  -0.0052   0.00    7.1
2020/12/24 21:30:33.000   40.097023818 -105.147249852  1578.1266   1  12   0.0061   0.0059   0.0128  -0.0018   0.0044  -0.0052   0.00    7.4
2020/12/24 21:30:34.000   40.097023824 -105.147249873  1578.1222   1  12   0.0061   0.0059   0.0128  -0.0018   0.0044  -0.0052   0.00    7.7
2020/12/24 21:30:35.000   40.097023833 -105.147249870  1578.1228   1  12   0.0061   0.0059   0.0128  -0.0018   0.0044  -0.0052   0.00    8.0
2020/12/24 21:30:36.000   40.097023820 -105.147249869  1578.1222   1  12   0.0061   0.0059   0.0128  -0.0018   0.0044  -0.0052   0.00    8.3
2020/12/24 21:30:37.000   40.097023832 -105.147249875  1578.1206   1  12   0.0061   0.0059   0.0128  -0.0018   0.0044  -0.0052   0.00    8.5
2020/12/24 21:30:38.000   40.097023822 -105.147249865  1578.1232   1  12   0.0061   0.0059   0.0128  -0.0018   0.0044  -0.0052   0.00    8.8
2020/12/24 21:30:39.000   40.097023834 -105.147249880  1578.1189   1  12   0.0061   0.0059   0.0128  -0.0018   0.0044  -0.0052   0.00    9.1
2020/12/24 21:30:40.000   40.097023823 -105.147249875  1578.1237   1  12   0.0061   0.0059   0.0128  -0.0018   0.0044  -0.0052   0.00    9.3
2020/12/24 21:30:41.000   40.097023825 -105.147249877  1578.1203   1  12   0.0061   0.0059   0.0128  -0.0018   0.0044  -0.0052   0.00    9.5
2020/12/24 21:30:42.000   40.097023839 -105.147249865  1578.1191   1  12   0.0061   0.0059   0.0128  -0.0018   0.0044  -0.0052   0.00    9.8
2020/12/24 21:30:43.000   40.097023823 -105.147249866  1578.1186   1  12   0.0061   0.0059   0.0128  -0.0018   0.0044  -0.0052   0.00   10.1
2020/12/24 21:30:44.000   40.097023839 -105.147249857  1578.1172   1  12   0.0061   0.0059   0.0128  -0.0018   0.0044  -0.0052   0.00   10.3
2020/12/24 21:30:45.000   40.097023835 -105.147249862  1578.1175   1  12   0.0061   0.0059   0.0128  -0.0018   0.0044  -0.0052   0.00   10.6
2020/12/24 21:30:46.000   40.097023841 -105.147249876  1578.1142   1  12   0.0061   0.0059   0.0128  -0.0018   0.0044  -0.0052   0.00   10.9
2020/12/24 21:30:47.000   40.097023845 -105.147249881  1578.1142   1  12   0.0061   0.0059   0.0128  -0.0018   0.0044  -0.0052   0.00   11.2
2020/12/24 21:30:48.000   40.097023841 -105.147249877  1578.1192   1  12   0.0061   0.0059   0.0128  -0.0018   0.0044  -0.0052   0.00   11.5
2020/12/24 21:30:49.000   40.097023855 -105.147249874  1578.1175   1  12   0.0061   0.0059   0.0128  -0.0018   0.0044  -0.0052   0.00   11.8
2020/12/24 21:30:50.000   40.097023844 -105.147249862  1578.1114   1  12   0.0061   0.0059   0.0128  -0.0018   0.0044  -0.0052   0.00   12.0
2020/12/24 21:30:51.000   40.097023850 -105.147249886  1578.1137   1  12   0.0061   0.0059   0.0128  -0.0018   0.0044  -0.0052   0.00   12.3
2020/12/24 21:30:52.000   40.097023858 -105.147249889  1578.1105   1  12   0.0061   0.0059   0.0128  -0.0018   0.0044  -0.0052   0.00   12.6
2020/12/24 21:30:53.000   40.097023838 -105.147249880  1578.1134   1  12   0.0061   0.0059   0.0128  -0.0018   0.0044  -0.0052   0.00   12.9
2020/12/24 21:30:54.000   40.097023841 -105.147249876  1578.1105   1  12   0.0061   0.0059   0.0128  -0.0018   0.0044  -0.0052   0.00   13.2
2020/12/24 21:30:55.000   40.097023842 -105.147249886  1578.1116   1  12   0.0061   0.0059   0.0128  -0.0018   0.0045  -0.0052   0.00   13.5
2020/12/24 21:30:56.000   40.097023834 -105.147249875  1578.1155   1  12   0.0061   0.0059   0.0128  -0.0018   0.0045  -0.0052   0.00   13.8
2020/12/24 21:30:57.000   40.097023852 -105.147249877  1578.1096   1  12   0.0061   0.0059   0.0128  -0.0018   0.0045  -0.0052   0.00   14.1
2020/12/24 21:30:58.000   40.097023848 -105.147249870  1578.1109   1  12   0.0061   0.0059   0.0128  -0.0018   0.0045  -0.0052   0.00   14.4
2020/12/24 21:30:59.000   40.097023849 -105.147249878  1578.1123   1  12   0.0061   0.0059   0.0128  -0.0018   0.0045  -0.0052   0.00   14.7
2020/12/24 21:31:00.000   40.097023841 -105.147249872  1578.1126   1  12   0.0061   0.0059   0.0128  -0.0019   0.0045  -0.0052   0.00   14.9
2020/12/24 21:31:01.000   40.097023842 -105.147249881  1578.1157   1  12   0.0061   0.0059   0.0128  -0.0019   0.0045  -0.0052   0.00   15.1
2020/12/24 21:31:02.000   40.097023850 -105.147249875  1578.1157   1  12   0.0061   0.0059   0.0128  -0.0019   0.0045  -0.0052   0.00   15.3
2020/12/24 21:31:03.000   40.097023838 -105.147249864  1578.1168   1  12   0.0061   0.0059   0.0128  -0.0019   0.0045  -0.0052   0.00   15.5
2020/12/24 21:31:04.000   40.097023838 -105.147249867  1578.1184   1  12   0.0061   0.0059   0.0128  -0.0019   0.0045  -0.0052   0.00   15.8
2020/12/24 21:31:05.000   40.097023844 -105.147249864  1578.1161   1  12   0.0061   0.0059   0.0128  -0.0019   0.0045  -0.0052   0.00   16.0
2020/12/24 21:31:06.000   40.097023846 -105.147249862  1578.1175   1  12   0.0061   0.0059   0.0128  -0.0019   0.0045  -0.0052   0.00   16.2
2020/12/24 21:31:07.000   40.097023855 -105.147249875  1578.1163   1  12   0.0061   0.0059   0.0128  -0.0019   0.0045  -0.0052   0.00   16.4
2020/12/24 21:31:08.000   40.097023850 -105.147249880  1578.1191   1  12   0.0061   0.0059   0.0128  -0.0019   0.0045  -0.0052   0.00   16.6
2020/12/24 21:31:09.000   40.097023855 -105.147249864  1578.1174   1  12   0.0061   0.0059   0.0128  -0.0019   0.0045  -0.0052   0.00   16.8
2020/12/24 21:31:10.000   40.097023843 -105.147249855  1578.1173   1  12   0.0061   0.0059   0.0128  -0.0019   0.0045  -0.0052   0.00   17.0
2020/12/24 21:31:11.000   40.097023856 -105.147249856  1578.1184   1  12   0.0061   0.0059   0.0128  -0.0019   0.0045  -0.0052   0.00   17.2
2020/12/24 21:31:12.000   40.097023852 -105.147249852  1578.1197   1  12   0.0061   0.0059   0.0128  -0.0019   0.0045  -0.0052   0.00   17.4
2020/12/24 21:31:13.000   40.097023844 -105.147249845  1578.1183   1  12   0.0061   0.0059   0.0128  -0.0019   0.0045  -0.0052   0.00   17.5
2020/12/24 21:31:14.000   40.097023861 -105.147249854  1578.1191   1  12   0.0061   0.0059   0.0128  -0.0019   0.0045  -0.0052   0.00   17.8
2020/12/24 21:31:15.000   40.097023854 -105.147249838  1578.1201   1  12   0.0061   0.0059   0.0128  -0.0019   0.0045  -0.0052   0.00   18.0
2020/12/24 21:31:16.000   40.097023832 -105.147249840  1578.1220   1  12   0.0061   0.0059   0.0128  -0.0019   0.0045  -0.0052   0.00   18.2
2020/12/24 21:31:17.000   40.097023830 -105.147249834  1578.1187   1  12   0.0061   0.0059   0.0128  -0.0019   0.0045  -0.0052   0.00   18.4
2020/12/24 21:31:18.000   40.097023840 -105.147249844  1578.1164   1  12   0.0061   0.0059   0.0128  -0.0019   0.0045  -0.0052   0.00   18.6
2020/12/24 21:31:19.000   40.097023836 -105.147249832  1578.1204   1  12   0.0061   0.0059   0.0128  -0.0019   0.0045  -0.0052   0.00   18.8
2020/12/24 21:31:20.000   40.097023841 -105.147249832  1578.1203   1  12   0.0061   0.0059   0.0128  -0.0019   0.0045  -0.0052   0.00   19.0
2020/12/24 21:31:21.000   40.097023828 -105.147249857  1578.1189   1  12   0.0061   0.0059   0.0128  -0.0019   0.0045  -0.0052   0.00   19.2
2020/12/24 21:31:22.000   40.097023831 -105.147249824  1578.1220   1  12   0.0061   0.0059   0.0128  -0.0019   0.0045  -0.0052   0.00   19.4
2020/12/24 21:31:23.000   40.097023832 -105.147249844  1578.1220   1  12   0.0061   0.0059   0.0128  -0.0019   0.0045  -0.0052   0.00   19.6
2020/12/24 21:31:24.000   40.097023821 -105.147249830  1578.1226   1  12   0.0061   0.0059   0.0128  -0.0019   0.0045  -0.0052   0.00   19.8
2020/12/24 21:31:25.000   40.097023831 -105.147249834  1578.1229   1  12   0.0061   0.0059   0.0128  -0.0019   0.0045  -0.0052   0.00   20.0
2020/12/24 21:31:26.000   40.097023829 -105.147249835  1578.1248   1  12   0.0061   0.0059   0.0128  -0.0019   0.0045  -0.0052   0.00   20.2
2020/12/24 21:31:27.000   40.097023822 -105.147249831  1578.1261   1  12   0.0061   0.0059   0.0128  -0.0019   0.0045  -0.0052   0.00   20.4
2020/12/24 21:31:28.000   40.097023812 -105.147249837  1578.1234   1  12   0.0061   0.0059   0.0128  -0.0019   0.0045  -0.0052   0.00   20.5
2020/12/24 21:31:29.000   40.097023814 -105.147249832  1578.1227   1  12   0.0061   0.0059   0.0128  -0.0019   0.0045  -0.0052   0.00   20.7
2020/12/24 21:31:30.000   40.097023835 -105.147249837  1578.1227   1  12   0.0061   0.0059   0.0128  -0.0019   0.0045  -0.0052   0.00   20.8
2020/12/24 21:31:31.000   40.097023828 -105.147249844  1578.1225   1  12   0.0061   0.0059   0.0128  -0.0019   0.0045  -0.0052   0.00   21.0
2020/12/24 21:31:32.000   40.097023836 -105.147249832  1578.1234   1  12   0.0061   0.0059   0.0128  -0.0019   0.0045  -0.0053   0.00   21.2
2020/12/24 21:31:33.000   40.097023823 -105.147249829  1578.1237   1  12   0.0061   0.0059   0.0128  -0.0019   0.0045  -0.0053   0.00   21.3
2020/12/24 21:31:34.000   40.097023831 -105.147249829  1578.1233   1  12   0.0061   0.0059   0.0128  -0.0019   0.0045  -0.0053   0.00   21.5
2020/12/24 21:31:35.000   40.097023818 -105.147249823  1578.1257   1  12   0.0061   0.0059   0.0128  -0.0019   0.0045  -0.0053   0.00   21.6
2020/12/24 21:31:36.000   40.097023811 -105.147249819  1578.1268   1  12   0.0061   0.0059   0.0128  -0.0019   0.0045  -0.0053   0.00   21.9
2020/12/24 21:31:37.000   40.097023816 -105.147249819  1578.1265   1  12   0.0061   0.0059   0.0128  -0.0019   0.0045  -0.0053   0.00   22.1
2020/12/24 21:31:38.000   40.097023815 -105.147249827  1578.1270   1  12   0.0061   0.0059   0.0128  -0.0019   0.0045  -0.0053   0.00   22.3
2020/12/24 21:31:39.000   40.097023825 -105.147249815  1578.1266   1  12   0.0061   0.0059   0.0128  -0.0019   0.0045  -0.0053   0.00   22.5
2020/12/24 21:31:40.000   40.097023808 -105.147249804  1578.1305   1  12   0.0061   0.0059   0.0128  -0.0019   0.0045  -0.0053   0.00   22.7
2020/12/24 21:31:41.000   40.097023814 -105.147249820  1578.1278   1  12   0.0061   0.0059   0.0128  -0.0019   0.0045  -0.0053   0.00   22.9
2020/12/24 21:31:42.000   40.097023824 -105.147249814  1578.1284   1  12   0.0061   0.0059   0.0128  -0.0019   0.0045  -0.0053   0.00   23.1
2020/12/24 21:31:43.000   40.097023813 -105.147249832  1578.1293   1  12   0.0061   0.0059   0.0128  -0.0019   0.0045  -0.0053   0.00   23.3
2020/12/24 21:31:44.000   40.097023814 -105.147249819  1578.1307   1  12   0.0061   0.0059   0.0128  -0.0019   0.0045  -0.0053   0.00   23.5
2020/12/24 21:31:45.000   40.097023829 -105.147249828  1578.1267   1  12   0.0061   0.0059   0.0128  -0.0019   0.0045  -0.0053   0.00   23.7
2020/12/24 21:31:46.000   40.097023820 -105.147249815  1578.1266   1  12   0.0061   0.0059   0.0128  -0.0019   0.0045  -0.0053   0.00   23.9
2020/12/24 21:31:47.000   40.097023816 -105.147249822  1578.1266   1  12   0.0061   0.0059   0.0128  -0.0019   0.0045  -0.0053   0.00   24.2
2020/12/24 21:31:48.000   40.097023821 -105.147249829  1578.1267   1  12   0.0061   0.0059   0.0128  -0.0019   0.0045  -0.0053   0.00   24.4
2020/12/24 21:31:49.000   40.097023822 -105.147249812  1578.1277   1  12   0.0061   0.0059   0.0128  -0.0019   0.0045  -0.0053   0.00   24.6
2020/12/24 21:31:50.000   40.097023818 -105.147249809  1578.1273   1  12   0.0061   0.0059   0.0128  -0.0019   0.0045  -0.0053   0.00   24.9
2020/12/24 21:31:51.000   40.097023812 -105.147249821  1578.1289   1  12   0.0061   0.0059   0.0128  -0.0019   0.0045  -0.0053   0.00   25.1
2020/12/24 21:31:52.000   40.097023831 -105.147249821  1578.1274   1  12   0.0061   0.0059   0.0128  -0.0019   0.0045  -0.0053   0.00   25.3
2020/12/24 21:31:53.000   40.097023826 -105.147249816  1578.1265   1  12   0.0061   0.0059   0.0128  -0.0019   0.0045  -0.0053   0.00   25.5
2020/12/24 21:31:54.000   40.097023837 -105.147249826  1578.1297   1  12   0.0061   0.0059   0.0128  -0.0019   0.0045  -0.0053   0.00   25.8
2020/12/24 21:31:55.000   40.097023839 -105.147249816  1578.1266   1  12   0.0061   0.0059   0.0128  -0.0019   0.0045  -0.0053   0.00   26.0
2020/12/24 21:31:56.000   40.097023830 -105.147249803  1578.1281   1  12   0.0061   0.0059   0.0128  -0.0019   0.0045  -0.0053   0.00   26.2
2020/12/24 21:31:57.000   40.097023835 -105.147249828  1578.1264   1  12   0.0061   0.0059   0.0128  -0.0019   0.0045  -0.0053   0.00   26.5
2020/12/24 21:31:58.000   40.097023839 -105.147249809  1578.1288   1  12   0.0061   0.0059   0.0128  -0.0019   0.0045  -0.0053   0.00   26.7
2020/12/24 21:31:59.000   40.097023834 -105.147249803  1578.1306   1  12   0.0061   0.0059   0.0128  -0.0019   0.0045  -0.0053   0.00   26.8
2020/12/24 21:32:00.000   40.097023837 -105.147249799  1578.1309   1  12   0.0061   0.0059   0.0128  -0.0019   0.0045  -0.0053   0.00   27.1
2020/12/24 21:32:01.000   40.097023827 -105.147249789  1578.1327   1  12   0.0061   0.0059   0.0128  -0.0019   0.0045  -0.0053   0.00   27.3
2020/12/24 21:32:02.000   40.097023834 -105.147249807  1578.1321   1  13   0.0061   0.0059   0.0128  -0.0019   0.0045  -0.0053   0.00   27.6
2020/12/24 21:32:03.000   40.097023831 -105.147249812  1578.1315   1  13   0.0060   0.0059   0.0127  -0.0019   0.0046  -0.0054   0.00   27.8
2020/12/24 21:32:04.000   40.097023839 -105.147249813  1578.1301   1  13   0.0060   0.0059   0.0126  -0.0019   0.0046  -0.0055   0.00   28.0
2020/12/24 21:32:05.000   40.097023835 -105.147249798  1578.1315   1  13   0.0060   0.0059   0.0126  -0.0019   0.0046  -0.0055   0.00   28.2
2020/12/24 21:32:06.000   40.097023834 -105.147249815  1578.1275   1  13   0.0060   0.0059   0.0126  -0.0019   0.0046  -0.0055   0.00   28.4
2020/12/24 21:32:07.000   40.097023841 -105.147249812  1578.1304   1  13   0.0060   0.0059   0.0125  -0.0019   0.0046  -0.0055   0.00   28.7
2020/12/24 21:32:08.000   40.097023834 -105.147249808  1578.1311   1  13   0.0060   0.0059   0.0125  -0.0019   0.0046  -0.0055   0.00   29.0
2020/12/24 21:32:09.000   40.097023829 -105.147249806  1578.1304   1  13   0.0060   0.0059   0.0125  -0.0019   0.0046  -0.0055   0.00   29.2
2020/12/24 21:32:10.000   40.097023834 -105.147249807  1578.1317   1  13   0.0060   0.0059   0.0125  -0.0019   0.0046  -0.0055   0.00   29.4
2020/12/24 21:32:11.000   40.097023822 -105.147249783  1578.1362   1  13   0.0060   0.0059   0.0125  -0.0019   0.0046  -0.0055   0.00   29.6
2020/12/24 21:32:12.000   40.097023843 -105.147249816  1578.1310   1  13   0.0060   0.0059   0.0125  -0.0019   0.0046  -0.0055   0.00   29.8
2020/12/24 21:32:13.000   40.097023821 -105.147249812  1578.1323   1  13   0.0060   0.0059   0.0125  -0.0019   0.0046  -0.0055   0.00   30.1
2020/12/24 21:32:14.000   40.097023838 -105.147249805  1578.1307   1  13   0.0060   0.0059   0.0125  -0.0019   0.0046  -0.0055   0.00   30.3
2020/12/24 21:32:15.000   40.097023836 -105.147249814  1578.1321   1  13   0.0060   0.0059   0.0125  -0.0019   0.0046  -0.0055   0.00   30.6
2020/12/24 21:32:16.000   40.097023811 -105.147249804  1578.1297   1  13   0.0060   0.0059   0.0125  -0.0019   0.0046  -0.0056   0.00    3.5
2020/12/24 21:32:17.000   40.097023819 -105.147249815  1578.1269   1  13   0.0060   0.0059   0.0125  -0.0019   0.0046  -0.0056   0.00    3.7
2020/12/24 21:32:18.000   40.097023813 -105.147249799  1578.1251   1  13   0.0060   0.0059   0.0125  -0.0019   0.0046  -0.0056   0.00    3.9
2020/12/24 21:32:19.000   40.097023817 -105.147249823  1578.1249   1  13   0.0060   0.0059   0.0125  -0.0019   0.0046  -0.0056   0.00    4.0
2020/12/24 21:32:20.000   40.097023811 -105.147249812  1578.1281   1  13   0.0060   0.0059   0.0125  -0.0019   0.0046  -0.0056   0.00    4.2
2020/12/24 21:32:21.000   40.097023800 -105.147249823  1578.1272   1  13   0.0060   0.0059   0.0125  -0.0019   0.0046  -0.0056   0.00    4.4
2020/12/24 21:32:22.000   40.097023805 -105.147249816  1578.1270   1  13   0.0060   0.0059   0.0125  -0.0019   0.0046  -0.0056   0.00    4.5
2020/12/24 21:32:23.000   40.097023810 -105.147249811  1578.1285   1  13   0.0060   0.0059   0.0125  -0.0019   0.0046  -0.0056   0.00    4.7
2020/12/24 21:32:24.000   40.097023805 -105.147249816  1578.1258   1  13   0.0060   0.0059   0.0125  -0.0019   0.0046  -0.0056   0.00    4.9
2020/12/24 21:32:25.000   40.097023812 -105.147249814  1578.1264   1  13   0.0060   0.0059   0.0125  -0.0019   0.0046  -0.0056   0.00    5.0
2020/12/24 21:32:26.000   40.097023794 -105.147249829  1578.1280   1  13   0.0060   0.0059   0.0125  -0.0019   0.0046  -0.0056   0.00    5.2
2020/12/24 21:32:27.000   40.097023814 -105.147249820  1578.1255   1  13   0.0060   0.0059   0.0125  -0.0019   0.0046  -0.0056   0.00    5.3
2020/12/24 21:32:28.000   40.097023799 -105.147249832  1578.1266   1  13   0.0060   0.0059   0.0125  -0.0019   0.0046  -0.0056   0.00    5.4
2020/12/24 21:32:29.000   40.097023805 -105.147249818  1578.1267   1  13   0.0060   0.0059   0.0125  -0.0019   0.0046  -0.0056   0.00    5.6
2020/12/24 21:32:30.000   40.097023787 -105.147249813  1578.1272   1  13   0.0060   0.0059   0.0125  -0.0019   0.0046  -0.0056   0.00    5.7
2020/12/24 21:32:31.000   40.097023793 -105.147249839  1578.1248   1  13   0.0060   0.0059   0.0125  -0.0019   0.0046  -0.0056   0.00    5.9
2020/12/24 21:32:32.000   40.097023809 -105.147249814  1578.1266   1  13   0.0060   0.0059   0.0125  -0.0019   0.0046  -0.0056   0.00    6.0
2020/12/24 21:32:33.000   40.097023797 -105.147249829  1578.1245   1  13   0.0060   0.0059   0.0125  -0.0019   0.0046  -0.0056   0.00    6.1
2020/12/24 21:32:34.000   40.097023778 -105.147249835  1578.1284   1  13   0.0060   0.0059   0.0125  -0.0019   0.0046  -0.0056   0.00    6.3
2020/12/24 21:32:35.000   40.097023797 -105.147249837  1578.1214   1  13   0.0060   0.0059   0.0125  -0.0019   0.0046  -0.0056   0.00    6.4
2020/12/24 21:32:36.000   40.097023791 -105.147249839  1578.1247   1  13   0.0060   0.0059   0.0125  -0.0019   0.0046  -0.0056   0.00    6.6
2020/12/24 21:32:37.000   40.097023777 -105.147249847  1578.1282   1  13   0.0060   0.0059   0.0125  -0.0019   0.0046  -0.0056   0.00    6.7
2020/12/24 21:32:38.000   40.097023798 -105.147249830  1578.1227   1  13   0.0060   0.0059   0.0125  -0.0019   0.0046  -0.0056   0.00    6.9
2020/12/24 21:32:39.000   40.097023782 -105.147249829  1578.1237   1  13   0.0060   0.0059   0.0125  -0.0019   0.0046  -0.0056   0.00    7.0
2020/12/24 21:32:40.000   40.097023783 -105.147249820  1578.1259   1  13   0.0060   0.0059   0.0125  -0.0019   0.0046  -0.0056   0.00    7.2
2020/12/24 21:32:41.000   40.097023777 -105.147249830  1578.1231   1  13   0.0060   0.0059   0.0125  -0.0019   0.0046  -0.0056   0.00    7.3
2020/12/24 21:32:42.000   40.097023790 -105.147249823  1578.1241   1  13   0.0060   0.0059   0.0125  -0.0019   0.0046  -0.0056   0.00    7.5
2020/12/24 21:32:43.000   40.097023775 -105.147249835  1578.1254   1  13   0.0060   0.0059   0.0125  -0.0019   0.0046  -0.0056   0.00    7.7
2020/12/24 21:32:44.000   40.097023791 -105.147249836  1578.1217   1  13   0.0060   0.0059   0.0125  -0.0019   0.0046  -0.0056   0.00    7.8
2020/12/24 21:32:45.000   40.097023774 -105.147249821  1578.1261   1  13   0.0060   0.0059   0.0125  -0.0019   0.0046  -0.0056   0.00    8.0
2020/12/24 21:32:46.000   40.097023780 -105.147249830  1578.1252   1  13   0.0060   0.0059   0.0125  -0.0019   0.0046  -0.0056   0.00    8.1
2020/12/24 21:32:47.000   40.097023790 -105.147249825  1578.1215   1  13   0.0060   0.0059   0.0125  -0.0019   0.0046  -0.0056   0.00    8.3
2020/12/24 21:32:48.000   40.097023771 -105.147249838  1578.1242   1  13   0.0060   0.0059   0.0125  -0.0019   0.0046  -0.0056   0.00    8.4
2020/12/24 21:32:49.000   40.097023776 -105.147249822  1578.1256   1  13   0.0060   0.0059   0.0125  -0.0019   0.0046  -0.0056   0.00    8.6
2020/12/24 21:32:50.000   40.097023778 -105.147249834  1578.1198   1  13   0.0060   0.0059   0.0125  -0.0019   0.0046  -0.0056   0.00    8.7
2020/12/24 21:32:51.000   40.097023769 -105.147249819  1578.1226   1  13   0.0060   0.0059   0.0125  -0.0019   0.0046  -0.0056   0.00    8.9
2020/12/24 21:32:52.000   40.097023760 -105.147249851  1578.1254   1  13   0.0060   0.0059   0.0125  -0.0019   0.0046  -0.0056   0.00    9.0
2020/12/24 21:32:53.000   40.097023766 -105.147249833  1578.1265   1  13   0.0060   0.0059   0.0125  -0.0019   0.0046  -0.0056   0.00    9.2
2020/12/24 21:32:54.000   40.097023764 -105.147249833  1578.1248   1  13   0.0060   0.0059   0.0125  -0.0019   0.0046  -0.0056   0.00    9.4
2020/12/24 21:32:55.000   40.097023766 -105.147249819  1578.1255   1  13   0.0060   0.0059   0.0125  -0.0019   0.0046  -0.0056   0.00    9.6
2020/12/24 21:32:56.000   40.097023763 -105.147249824  1578.1265   1  13   0.0060   0.0059   0.0125  -0.0019   0.0046  -0.0056   0.00    9.7
2020/12/24 21:32:57.000   40.097023777 -105.147249823  1578.1235   1  13   0.0060   0.0059   0.0125  -0.0019   0.0046  -0.0056   0.00    9.9
2020/12/24 21:32:58.000   40.097023775 -105.147249827  1578.1237   1  13   0.0060   0.0059   0.0125  -0.0019   0.0046  -0.0056   0.00   10.1
2020/12/24 21:32:59.000   40.097023774 -105.147249822  1578.1232   1  13   0.0060   0.0059   0.0125  -0.0019   0.0047  -0.0056   0.00   10.2
2020/12/24 21:33:00.000   40.097023773 -105.147249840  1578.1237   1  13   0.0060   0.0059   0.0125  -0.0019   0.0047  -0.0056   0.00   10.4
2020/12/24 21:33:01.000   40.097023769 -105.147249830  1578.1228   1  13   0.0060   0.0059   0.0125  -0.0019   0.0047  -0.0056   0.00   10.5
2020/12/24 21:33:02.000   40.097023765 -105.147249834  1578.1254   1  13   0.0060   0.0059   0.0125  -0.0019   0.0047  -0.0056   0.00   10.7
2020/12/24 21:33:03.000   40.097023773 -105.147249817  1578.1247   1  13   0.0060   0.0059   0.0125  -0.0019   0.0047  -0.0056   0.00   10.9
2020/12/24 21:33:04.000   40.097023785 -105.147249837  1578.1222   1  13   0.0060   0.0059   0.0125  -0.0019   0.0047  -0.0056   0.00   11.0
2020/12/24 21:33:05.000   40.097023780 -105.147249821  1578.1225   1  13   0.0060   0.0059   0.0125  -0.0019   0.0047  -0.0056   0.00   11.2
2020/12/24 21:33:06.000   40.097023779 -105.147249829  1578.1224   1  13   0.0060   0.0059   0.0125  -0.0019   0.0047  -0.0056   0.00   11.4
2020/12/24 21:33:07.000   40.097023768 -105.147249834  1578.1216   1  13   0.0060   0.0059   0.0125  -0.0019   0.0047  -0.0056   0.00   11.5
2020/12/24 21:33:08.000   40.097023787 -105.147249839  1578.1198   1  13   0.0060   0.0059   0.0125  -0.0019   0.0047  -0.0056   0.00   11.7
2020/12/24 21:33:09.000   40.097023768 -105.147249831  1578.1216   1  13   0.0060   0.0059   0.0125  -0.0019   0.0047  -0.0056   0.00   11.9
2020/12/24 21:33:10.000   40.097023774 -105.147249828  1578.1231   1  13   0.0060   0.0059   0.0125  -0.0019   0.0047  -0.0056   0.00   12.0
2020/12/24 21:33:11.000   40.097023773 -105.147249828  1578.1222   1  13   0.0060   0.0059   0.0125  -0.0019   0.0047  -0.0056   0.00   12.2
2020/12/24 21:33:12.000   40.097023764 -105.147249811  1578.1243   1  13   0.0060   0.0059   0.0125  -0.0019   0.0047  -0.0056   0.00   12.4
2020/12/24 21:33:13.000   40.097023788 -105.147249820  1578.1210   1  13   0.0060   0.0059   0.0125  -0.0019   0.0047  -0.0056   0.00   12.5
2020/12/24 21:33:14.000   40.097023766 -105.147249824  1578.1225   1  13   0.0060   0.0059   0.0125  -0.0019   0.0047  -0.0056   0.00   12.7
2020/12/24 21:33:15.000   40.097023768 -105.147249823  1578.1208   1  13   0.0060   0.0059   0.0125  -0.0019   0.0047  -0.0056   0.00   12.9
2020/12/24 21:33:16.000   40.097023773 -105.147249824  1578.1213   1  13   0.0060   0.0059   0.0125  -0.0019   0.0047  -0.0056   0.00   13.1
2020/12/24 21:33:17.000   40.097023781 -105.147249827  1578.1206   1  13   0.0060   0.0059   0.0125  -0.0019   0.0047  -0.0056   0.00   13.2
2020/12/24 21:33:18.000   40.097023780 -105.147249822  1578.1223   1  13   0.0060   0.0059   0.0125  -0.0019   0.0047  -0.0056   0.00   13.4
2020/12/24 21:33:19.000   40.097023786 -105.147249830  1578.1190   1  13   0.0060   0.0059   0.0125  -0.0019   0.0047  -0.0056   0.00   13.6
2020/12/24 21:33:20.000   40.097023779 -105.147249809  1578.1184   1  13   0.0060   0.0059   0.0125  -0.0019   0.0047  -0.0056   0.00   13.8
2020/12/24 21:33:21.000   40.097023780 -105.147249841  1578.1192   1  13   0.0060   0.0059   0.0125  -0.0019   0.0047  -0.0056   0.00   13.9
2020/12/24 21:33:22.000   40.097023788 -105.147249833  1578.1192   1  13   0.0060   0.0059   0.0125  -0.0019   0.0047  -0.0056   0.00   14.0
2020/12/24 21:33:23.000   40.097023786 -105.147249834  1578.1204   1  13   0.0060   0.0059   0.0125  -0.0019   0.0047  -0.0056   0.00   14.2
2020/12/24 21:33:24.000   40.097023773 -105.147249822  1578.1233   1  13   0.0060   0.0059   0.0125  -0.0019   0.0047  -0.0056   0.00   14.4
2020/12/24 21:33:25.000   40.097023791 -105.147249823  1578.1197   1  13   0.0060   0.0059   0.0125  -0.0019   0.0047  -0.0056   0.00   14.6
2020/12/24 21:33:26.000   40.097023772 -105.147249823  1578.1246   1  13   0.0060   0.0059   0.0125  -0.0019   0.0047  -0.0056   0.00   14.7
2020/12/24 21:33:27.000   40.097023791 -105.147249821  1578.1220   1  13   0.0060   0.0059   0.0125  -0.0019   0.0047  -0.0056   0.00   14.8
2020/12/24 21:33:28.000   40.097023783 -105.147249818  1578.1245   1  13   0.0060   0.0059   0.0125  -0.0019   0.0047  -0.0056   0.00   15.0
2020/12/24 21:33:29.000   40.097023774 -105.147249821  1578.1275   1  13   0.0060   0.0059   0.0125  -0.0019   0.0047  -0.0056   0.00   15.1
2020/12/24 21:33:30.000   40.097023785 -105.147249830  1578.1231   1  13   0.0060   0.0059   0.0125  -0.0019   0.0047  -0.0056   0.00   15.3
2020/12/24 21:33:31.000   40.097023775 -105.147249816  1578.1295   1  13   0.0060   0.0059   0.0125  -0.0019   0.0047  -0.0056   0.00   15.4
2020/12/24 21:33:32.000   40.097023788 -105.147249819  1578.1263   1  13   0.0060   0.0059   0.0125  -0.0019   0.0047  -0.0056   0.00   15.6
2020/12/24 21:33:33.000   40.097023774 -105.147249827  1578.1294   1  13   0.0060   0.0059   0.0125  -0.0019   0.0047  -0.0056   0.00   15.7
2020/12/24 21:33:34.000   40.097023782 -105.147249812  1578.1268   1  13   0.0060   0.0059   0.0125  -0.0019   0.0047  -0.0056   0.00   15.8
2020/12/24 21:33:35.000   40.097023777 -105.147249819  1578.1254   1  13   0.0060   0.0059   0.0125  -0.0019   0.0047  -0.0056   0.00   16.0
2020/12/24 21:33:36.000   40.097023772 -105.147249815  1578.1299   1  13   0.0060   0.0059   0.0125  -0.0019   0.0047  -0.0056   0.00   16.1
2020/12/24 21:33:37.000   40.097023769 -105.147249812  1578.1294   1  13   0.0060   0.0059   0.0125  -0.0019   0.0047  -0.0056   0.00   16.2
2020/12/24 21:33:38.000   40.097023781 -105.147249812  1578.1286   1  13   0.0060   0.0059   0.0125  -0.0019   0.0047  -0.0056   0.00   16.4
2020/12/24 21:33:39.000   40.097023769 -105.147249810  1578.1306   1  13   0.0060   0.0059   0.0125  -0.0019   0.0047  -0.0056   0.00   16.5
2020/12/24 21:33:40.000   40.097023760 -105.147249812  1578.1329   1  13   0.0060   0.0059   0.0125  -0.0019   0.0047  -0.0056   0.00   16.6
2020/12/24 21:33:41.000   40.097023775 -105.147249818  1578.1294   1  13   0.0060   0.0059   0.0125  -0.0019   0.0047  -0.0056   0.00   16.8
2020/12/24 21:33:42.000   40.097023782 -105.147249833  1578.1315   1  13   0.0060   0.0059   0.0125  -0.0019   0.0047  -0.0056   0.00   16.9
2020/12/24 21:33:43.000   40.097023775 -105.147249803  1578.1341   1  13   0.0060   0.0059   0.0125  -0.0019   0.0047  -0.0056   0.00   17.0
2020/12/24 21:33:44.000   40.097023767 -105.147249816  1578.1307   1  13   0.0060   0.0059   0.0125  -0.0019   0.0047  -0.0056   0.00   17.1
2020/12/24 21:33:45.000   40.097023766 -105.147249822  1578.1312   1  13   0.0060   0.0059   0.0125  -0.0019   0.0047  -0.0056   0.00   17.2
2020/12/24 21:33:46.000   40.097023783 -105.147249809  1578.1320   1  13   0.0060   0.0059   0.0125  -0.0019   0.0047  -0.0056   0.00   17.2
2020/12/24 21:33:47.000   40.097023769 -105.147249817  1578.1335   1  13   0.0060   0.0059   0.0125  -0.0019   0.0047  -0.0056   0.00   17.3
2020/12/24 21:33:48.000   40.097023760 -105.147249815  1578.1315   1  13   0.0060   0.0059   0.0125  -0.0019   0.0047  -0.0056   0.00   17.4
2020/12/24 21:33:49.000   40.097023764 -105.147249813  1578.1338   1  13   0.0060   0.0059   0.0125  -0.0019   0.0047  -0.0056   0.00   17.5
2020/12/24 21:33:50.000   40.097023761 -105.147249821  1578.1341   1  13   0.0060   0.0059   0.0125  -0.0019   0.0047  -0.0056   0.00   17.6
2020/12/24 21:33:51.000   40.097023777 -105.147249820  1578.1315   1  13   0.0060   0.0059   0.0125  -0.0019   0.0047  -0.0056   0.00   17.6
2020/12/24 21:33:52.000   40.097023774 -105.147249822  1578.1324   1  13   0.0060   0.0060   0.0125  -0.0019   0.0047  -0.0056   0.00   17.7
2020/12/24 21:33:53.000   40.097023772 -105.147249818  1578.1325   1  13   0.0060   0.0060   0.0125  -0.0019   0.0047  -0.0056   0.00   17.8
2020/12/24 21:33:54.000   40.097023771 -105.147249788  1578.1365   1  13   0.0060   0.0060   0.0125  -0.0019   0.0047  -0.0056   0.00   17.9
2020/12/24 21:33:55.000   40.097023765 -105.147249812  1578.1347   1  13   0.0060   0.0060   0.0125  -0.0019   0.0047  -0.0056   0.00   17.9
2020/12/24 21:33:56.000   40.097023782 -105.147249811  1578.1343   1  13   0.0060   0.0060   0.0125  -0.0019   0.0047  -0.0056   0.00   18.0
2020/12/24 21:33:57.000   40.097023773 -105.147249795  1578.1340   1  13   0.0060   0.0060   0.0125  -0.0019   0.0047  -0.0056   0.00   18.1
2020/12/24 21:33:58.000   40.097023780 -105.147249807  1578.1309   1  13   0.0060   0.0060   0.0125  -0.0019   0.0047  -0.0056   0.00   18.2
2020/12/24 21:33:59.000   40.097023774 -105.147249806  1578.1334   1  13   0.0060   0.0060   0.0125  -0.0019   0.0047  -0.0056   0.00   18.3
2020/12/24 21:34:00.000   40.097023771 -105.147249795  1578.1347   1  13   0.0060   0.0060   0.0125  -0.0019   0.0047  -0.0056   0.00   18.3
2020/12/24 21:34:01.000   40.097023786 -105.147249807  1578.1319   1  13   0.0060   0.0060   0.0125  -0.0019   0.0047  -0.0056   0.00   18.4
2020/12/24 21:34:02.000   40.097023780 -105.147249806  1578.1320   1  13   0.0060   0.0060   0.0125  -0.0019   0.0047  -0.0056   0.00   18.4
2020/12/24 21:34:03.000   40.097023776 -105.147249795  1578.1343   1  13   0.0060   0.0060   0.0125  -0.0019   0.0047  -0.0056   0.00   18.5
2020/12/24 21:34:04.000   40.097023776 -105.147249802  1578.1309   1  13   0.0060   0.0060   0.0125  -0.0019   0.0047  -0.0056   0.00   18.5
2020/12/24 21:34:05.000   40.097023777 -105.147249793  1578.1320   1  13   0.0060   0.0060   0.0125  -0.0019   0.0047  -0.0056   0.00   18.6
2020/12/24 21:34:06.000   40.097023764 -105.147249787  1578.1309   1  13   0.0060   0.0060   0.0125  -0.0019   0.0047  -0.0056   0.00   18.7
2020/12/24 21:34:07.000   40.097023788 -105.147249794  1578.1310   1  13   0.0060   0.0060   0.0125  -0.0019   0.0047  -0.0056   0.00   18.7
2020/12/24 21:34:08.000   40.097023770 -105.147249796  1578.1331   1  13   0.0060   0.0060   0.0125  -0.0019   0.0047  -0.0056   0.00   18.8
2020/12/24 21:34:09.000   40.097023773 -105.147249793  1578.1316   1  13   0.0060   0.0060   0.0125  -0.0019   0.0047  -0.0056   0.00   18.8
2020/12/24 21:34:10.000   40.097023808 -105.147249798  1578.1297   1  13   0.0060   0.0060   0.0125  -0.0019   0.0047  -0.0056   0.00   18.9
2020/12/24 21:34:11.000   40.097023788 -105.147249796  1578.1324   1  13   0.0060   0.0060   0.0125  -0.0019   0.0047  -0.0056   0.00   19.0
2020/12/24 21:34:12.000   40.097023778 -105.147249795  1578.1333   1  13   0.0060   0.0060   0.0125  -0.0019   0.0048  -0.0056   0.00   19.0
2020/12/24 21:34:13.000   40.097023799 -105.147249802  1578.1303   1  13   0.0060   0.0060   0.0125  -0.0019   0.0048  -0.0056   0.00   19.1
2020/12/24 21:34:14.000   40.097023799 -105.147249809  1578.1302   1  13   0.0060   0.0060   0.0125  -0.0019   0.0048  -0.0056   0.00   19.2
2020/12/24 21:34:15.000   40.097023798 -105.147249794  1578.1286   1  13   0.0060   0.0060   0.0125  -0.0019   0.0048  -0.0056   0.00   19.2
2020/12/24 21:34:16.000   40.097023785 -105.147249790  1578.1314   1  13   0.0060   0.0060   0.0125  -0.0019   0.0048  -0.0056   0.00   19.3
2020/12/24 21:34:17.000   40.097023796 -105.147249783  1578.1310   1  13   0.0060   0.0060   0.0125  -0.0019   0.0048  -0.0056   0.00   19.3
2020/12/24 21:34:18.000   40.097023802 -105.147249790  1578.1300   1  13   0.0060   0.0060   0.0125  -0.0019   0.0048  -0.0056   0.00   19.4
2020/12/24 21:34:19.000   40.097023805 -105.147249804  1578.1287   1  13   0.0060   0.0060   0.0125  -0.0019   0.0048  -0.0056   0.00   19.4
2020/12/24 21:34:20.000   40.097023796 -105.147249805  1578.1280   1  13   0.0060   0.0060   0.0125  -0.0019   0.0048  -0.0056   0.00   19.4
2020/12/24 21:34:21.000   40.097023800 -105.147249792  1578.1292   1  13   0.0060   0.0060   0.0125  -0.0019   0.0048  -0.0056   0.00   19.5
2020/12/24 21:34:22.000   40.097023805 -105.147249788  1578.1298   1  13   0.0060   0.0060   0.0125  -0.0020   0.0048  -0.0056   0.00   19.5
2020/12/24 21:34:23.000   40.097023817 -105.147249804  1578.1257   1  13   0.0060   0.0060   0.0125  -0.0020   0.0048  -0.0056   0.00   19.5
2020/12/24 21:34:24.000   40.097023811 -105.147249800  1578.1301   1  13   0.0060   0.0060   0.0125  -0.0020   0.0048  -0.0056   0.00   19.6
2020/12/24 21:34:25.000   40.097023810 -105.147249800  1578.1299   1  13   0.0060   0.0060   0.0125  -0.0020   0.0048  -0.0056   0.00   19.6
2020/12/24 21:34:26.000   40.097023816 -105.147249791  1578.1269   1  13   0.0060   0.0060   0.0125  -0.0020   0.0048  -0.0056   0.00   19.6
2020/12/24 21:34:27.000   40.097023814 -105.147249802  1578.1279   1  13   0.0060   0.0060   0.0125  -0.0020   0.0048  -0.0056   0.00   19.7
2020/12/24 21:34:28.000   40.097023814 -105.147249799  1578.1287   1  13   0.0060   0.0060   0.0125  -0.0020   0.0048  -0.0056   0.00   19.7
2020/12/24 21:34:29.000   40.097023807 -105.147249788  1578.1311   1  13   0.0060   0.0060   0.0125  -0.0020   0.0048  -0.0056   0.00   19.8
2020/12/24 21:34:30.000   40.097023812 -105.147249801  1578.1264   1  13   0.0060   0.0060   0.0125  -0.0020   0.0048  -0.0056   0.00   19.8
2020/12/24 21:34:31.000   40.097023822 -105.147249801  1578.1276   1  13   0.0060   0.0060   0.0125  -0.0020   0.0048  -0.0056   0.00   19.9
2020/12/24 21:34:32.000   40.097023821 -105.147249803  1578.1291   1  13   0.0060   0.0060   0.0125  -0.0020   0.0048  -0.0056   0.00   19.9
2020/12/24 21:34:33.000   40.097023813 -105.147249791  1578.1289   1  13   0.0060   0.0060   0.0125  -0.0020   0.0048  -0.0056   0.00   19.9
2020/12/24 21:34:34.000   40.097023810 -105.147249820  1578.1277   1  13   0.0060   0.0060   0.0125  -0.0020   0.0048  -0.0056   0.00   20.0
2020/12/24 21:34:35.000   40.097023822 -105.147249775  1578.1299   1  13   0.0060   0.0060   0.0125  -0.0020   0.0048  -0.0056   0.00   20.0
2020/12/24 21:34:36.000   40.097023815 -105.147249796  1578.1304   1  13   0.0060   0.0060   0.0125  -0.0020   0.0048  -0.0056   0.00   20.0
2020/12/24 21:34:37.000   40.097023808 -105.147249783  1578.1310   1  13   0.0060   0.0060   0.0125  -0.0020   0.0048  -0.0056   0.00   20.1
2020/12/24 21:34:38.000   40.097023808 -105.147249785  1578.1283   1  13   0.0060   0.0060   0.0125  -0.0020   0.0048  -0.0056   0.00   20.1
2020/12/24 21:34:39.000   40.097023804 -105.147249802  1578.1327   1  13   0.0060   0.0060   0.0125  -0.0020   0.0048  -0.0056   0.00   20.1
2020/12/24 21:34:40.000   40.097023816 -105.147249786  1578.1294   1  13   0.0060   0.0060   0.0125  -0.0020   0.0048  -0.0056   0.00   20.2
2020/12/24 21:34:41.000   40.097023806 -105.147249793  1578.1304   1  13   0.0060   0.0060   0.0125  -0.0020   0.0048  -0.0056   0.00   20.2
2020/12/24 21:34:42.000   40.097023808 -105.147249776  1578.1312   1  13   0.0060   0.0060   0.0125  -0.0020   0.0048  -0.0056   0.00   20.3
2020/12/24 21:34:43.000   40.097023807 -105.147249813  1578.1285   1  13   0.0060   0.0060   0.0125  -0.0020   0.0048  -0.0056   0.00   20.4
2020/12/24 21:34:44.000   40.097023800 -105.147249784  1578.1330   1  13   0.0060   0.0060   0.0125  -0.0020   0.0048  -0.0056   0.00   20.4
2020/12/24 21:34:45.000   40.097023810 -105.147249793  1578.1297   1  13   0.0060   0.0060   0.0125  -0.0020   0.0048  -0.0056   0.00   20.5
2020/12/24 21:34:46.000   40.097023817 -105.147249796  1578.1315   1  13   0.0060   0.0060   0.0125  -0.0020   0.0048  -0.0056   0.00   20.6
2020/12/24 21:34:47.000   40.097023806 -105.147249788  1578.1301   1  13   0.0060   0.0060   0.0125  -0.0020   0.0048  -0.0056   0.00   20.6
2020/12/24 21:34:48.000   40.097023797 -105.147249789  1578.1338   1  13   0.0060   0.0060   0.0125  -0.0020   0.0048  -0.0056   0.00   20.7
2020/12/24 21:34:49.000   40.097023802 -105.147249768  1578.1320   1  13   0.0060   0.0060   0.0125  -0.0020   0.0048  -0.0056   0.00   20.8
2020/12/24 21:34:50.000   40.097023811 -105.147249788  1578.1319   1  13   0.0060   0.0060   0.0125  -0.0020   0.0048  -0.0056   0.00   20.9
2020/12/24 21:34:51.000   40.097023803 -105.147249794  1578.1311   1  13   0.0060   0.0060   0.0125  -0.0020   0.0048  -0.0056   0.00   21.0
2020/12/24 21:34:52.000   40.097023814 -105.147249779  1578.1304   1  13   0.0060   0.0060   0.0125  -0.0020   0.0048  -0.0056   0.00   21.1
2020/12/24 21:34:53.000   40.097023814 -105.147249789  1578.1305   1  13   0.0060   0.0060   0.0125  -0.0020   0.0048  -0.0056   0.00   21.2
2020/12/24 21:34:54.000   40.097023819 -105.147249780  1578.1308   1  13   0.0060   0.0060   0.0125  -0.0020   0.0048  -0.0056   0.00   21.3
2020/12/24 21:34:55.000   40.097023816 -105.147249773  1578.1329   1  13   0.0060   0.0060   0.0125  -0.0020   0.0048  -0.0056   0.00   21.4
2020/12/24 21:34:56.000   40.097023823 -105.147249794  1578.1319   1  13   0.0060   0.0060   0.0125  -0.0020   0.0048  -0.0056   0.00   21.5
2020/12/24 21:34:57.000   40.097023803 -105.147249793  1578.1324   1  13   0.0060   0.0060   0.0125  -0.0020   0.0048  -0.0056   0.00   21.6
2020/12/24 21:34:58.000   40.097023810 -105.147249796  1578.1342   1  13   0.0060   0.0060   0.0125  -0.0020   0.0048  -0.0056   0.00   21.7
2020/12/24 21:34:59.000   40.097023811 -105.147249784  1578.1337   1  13   0.0060   0.0060   0.0125  -0.0020   0.0048  -0.0056   0.00   21.8
2020/12/24 21:35:00.000   40.097023820 -105.147249770  1578.1312   1  13   0.0060   0.0060   0.0125  -0.0020   0.0048  -0.0056   0.00   21.9
2020/12/24 21:35:01.000   40.097023810 -105.147249798  1578.1332   1  13   0.0060   0.0060   0.0125  -0.0020   0.0048  -0.0056   0.00   22.0
2020/12/24 21:35:02.000   40.097023811 -105.147249788  1578.1325   1  13   0.0060   0.0060   0.0125  -0.0020   0.0048  -0.0056   0.00   22.2
2020/12/24 21:35:03.000   40.097023805 -105.147249790  1578.1370   1  13   0.0060   0.0060   0.0125  -0.0020   0.0048  -0.0056   0.00   22.3
2020/12/24 21:35:04.000   40.097023813 -105.147249799  1578.1337   1  13   0.0060   0.0060   0.0125  -0.0020   0.0048  -0.0056   0.00   22.3
2020/12/24 21:35:05.000   40.097023814 -105.147249788  1578.1343   1  13   0.0060   0.0060   0.0125  -0.0020   0.0048  -0.0056   0.00   22.4
2020/12/24 21:35:06.000   40.097023816 -105.147249791  1578.1350   1  13   0.0060   0.0060   0.0125  -0.0020   0.0048  -0.0056   0.00   22.5
2020/12/24 21:35:07.000   40.097023814 -105.147249799  1578.1352   1  13   0.0060   0.0060   0.0125  -0.0020   0.0048  -0.0056   0.00   22.6
2020/12/24 21:35:08.000   40.097023826 -105.147249809  1578.1325   1  13   0.0060   0.0060   0.0125  -0.0020   0.0048  -0.0056   0.00   22.7
2020/12/24 21:35:09.000   40.097023820 -105.147249798  1578.1345   1  13   0.0060   0.0060   0.0125  -0.0020   0.0048  -0.0056   0.00   22.8
2020/12/24 21:35:10.000   40.097023830 -105.147249804  1578.1317   1  13   0.0060   0.0060   0.0125  -0.0020   0.0048  -0.0056   0.00   23.0
2020/12/24 21:35:11.000   40.097023818 -105.147249798  1578.1341   1  13   0.0060   0.0060   0.0125  -0.0020   0.0048  -0.0056   0.00   23.1
2020/12/24 21:35:12.000   40.097023817 -105.147249808  1578.1347   1  13   0.0060   0.0060   0.0125  -0.0020   0.0048  -0.0056   0.00   23.2
2020/12/24 21:35:13.000   40.097023805 -105.147249790  1578.1344   1  13   0.0060   0.0060   0.0125  -0.0020   0.0048  -0.0056   0.00   23.3
2020/12/24 21:35:14.000   40.097023824 -105.147249812  1578.1344   1  13   0.0060   0.0060   0.0125  -0.0020   0.0048  -0.0056   0.00   23.4
2020/12/24 21:35:15.000   40.097023830 -105.147249798  1578.1330   1  13   0.0060   0.0060   0.0125  -0.0020   0.0048  -0.0056   0.00   23.5
2020/12/24 21:35:16.000   40.097023818 -105.147249821  1578.1344   1  13   0.0060   0.0060   0.0125  -0.0020   0.0048  -0.0056   0.00   23.6
2020/12/24 21:35:17.000   40.097023820 -105.147249801  1578.1369   1  13   0.0060   0.0060   0.0125  -0.0020   0.0048  -0.0056   0.00   23.7
2020/12/24 21:35:18.000   40.097023828 -105.147249816  1578.1362   1  13   0.0060   0.0060   0.0125  -0.0020   0.0048  -0.0056   0.00   23.8
2020/12/24 21:35:19.000   40.097023808 -105.147249803  1578.1372   1  13   0.0060   0.0060   0.0125  -0.0020   0.0048  -0.0056   0.00   24.0
2020/12/24 21:35:20.000   40.097023821 -105.147249806  1578.1343   1  13   0.0060   0.0060   0.0125  -0.0020   0.0048  -0.0056   0.00   24.1
2020/12/24 21:35:21.000   40.097023822 -105.147249798  1578.1375   1  13   0.0060   0.0060   0.0125  -0.0020   0.0048  -0.0056   0.00   24.2
2020/12/24 21:35:22.000   40.097023835 -105.147249795  1578.1360   1  13   0.0060   0.0060   0.0125  -0.0020   0.0048  -0.0056   0.00   24.3
2020/12/24 21:35:23.000   40.097023823 -105.147249813  1578.1349   1  13   0.0060   0.0060   0.0125  -0.0020   0.0048  -0.0056   0.00   24.4
2020/12/24 21:35:24.000   40.097023811 -105.147249790  1578.1377   1  13   0.0060   0.0060   0.0125  -0.0020   0.0048  -0.0056   0.00   24.6
2020/12/24 21:35:25.000   40.097023834 -105.147249800  1578.1332   1  13   0.0060   0.0060   0.0125  -0.0020   0.0048  -0.0056   0.00   24.7
2020/12/24 21:35:26.000   40.097023828 -105.147249810  1578.1339   1  13   0.0060   0.0060   0.0125  -0.0020   0.0049  -0.0056   0.00   24.9
2020/12/24 21:35:27.000   40.097023826 -105.147249809  1578.1329   1  13   0.0060   0.0060   0.0125  -0.0020   0.0049  -0.0056   0.00   25.0
2020/12/24 21:35:28.000   40.097023830 -105.147249792  1578.1348   1  13   0.0060   0.0060   0.0125  -0.0020   0.0049  -0.0056   0.00   25.1
2020/12/24 21:35:29.000   40.097023824 -105.147249791  1578.1343   1  13   0.0060   0.0060   0.0125  -0.0020   0.0049  -0.0056   0.00   25.3
2020/12/24 21:35:30.000   40.097023818 -105.147249797  1578.1341   1  13   0.0060   0.0060   0.0125  -0.0020   0.0049  -0.0056   0.00   25.4
2020/12/24 21:35:31.000   40.097023821 -105.147249794  1578.1353   1  13   0.0060   0.0060   0.0125  -0.0020   0.0049  -0.0056   0.00   25.5
2020/12/24 21:35:32.000   40.097023814 -105.147249786  1578.1351   1  13   0.0060   0.0060   0.0125  -0.0020   0.0049  -0.0056   0.00   25.7
2020/12/24 21:35:33.000   40.097023823 -105.147249789  1578.1330   1  13   0.0060   0.0060   0.0125  -0.0020   0.0049  -0.0056   0.00   25.9
2020/12/24 21:35:34.000   40.097023823 -105.147249793  1578.1325   1  13   0.0060   0.0060   0.0125  -0.0020   0.0049  -0.0056   0.00   26.0
2020/12/24 21:35:35.000   40.097023829 -105.147249790  1578.1311   1  13   0.0060   0.0060   0.0125  -0.0020   0.0049  -0.0056   0.00   26.2
2020/12/24 21:35:36.000   40.097023828 -105.147249791  1578.1292   1  13   0.0060   0.0060   0.0125  -0.0020   0.0049  -0.0056   0.00   26.3
2020/12/24 21:35:37.000   40.097023826 -105.147249788  1578.1320   1  13   0.0060   0.0060   0.0125  -0.0020   0.0049  -0.0056   0.00   26.5
2020/12/24 21:35:38.000   40.097023822 -105.147249786  1578.1315   1  13   0.0060   0.0060   0.0125  -0.0020   0.0049  -0.0056   0.00   26.7
2020/12/24 21:35:39.000   40.097023811 -105.147249784  1578.1306   1  13   0.0060   0.0060   0.0125  -0.0020   0.0049  -0.0056   0.00   26.9
