%  GPST          latitude(deg) longitude(deg)  height(m)   Q  ns   sdn(m)   sde(m)   sdu(m)  sdne(m)  sdeu(m)  sdun(m) age(s)  ratio
2137 422922.000   40.097024946 -105.147249402  1578.7073   2  11   1.8441    7.1280   3.4542   0.5325  -2.9836  -0.3379  28.01    0.0
2137 422923.000   40.097024655 -105.147249897  1578.7096   2  11   0.9787    3.8221   1.8877   0.2713  -1.6337  -0.1558  29.01    0.0
2137 422924.000   40.097024405 -105.147249762  1578.7269   2  11   0.6664    2.6121   1.2993   0.1816  -1.1250  -0.1000  29.01    0.0
2137 422925.000   40.097024065 -105.147249391  1578.7398   2  11   0.5053    1.9843   0.9906   0.1363  -0.8580  -0.0735  29.01    0.0
2137 422926.000   40.097024040 -105.147249228  1578.7415   2  11   0.4070    1.6000   0.8006   0.1091  -0.6934  -0.0580  29.01    0.0
2137 422927.000   40.097024004 -105.147248970  1578.7555   2  11   0.3408    1.3405   0.6717   0.0909  -0.5818  -0.0478  29.01    0.0
2137 422928.000   40.097024009 -105.147248798  1578.7887   2  11   0.2932    1.1535   0.5786   0.0779  -0.5011  -0.0407  29.01    0.0
2137 422929.000   40.097023917 -105.147248617  1578.8202   2  11   0.2572    1.0123   0.5082   0.0681  -0.4401  -0.0354  29.01    0.0
2137 422930.000   40.097023824 -105.147248257  1578.8514   2  11   0.2292    0.9019   0.4530   0.0605  -0.3923  -0.0314  29.01    0.0
2137 422931.000   40.097023750 -105.147247979  1578.8781   2  11   0.2066    0.8133   0.4087   0.0544  -0.3538  -0.0281  29.01    0.0
2137 422932.000   40.097023686 -105.147247773  1578.9016   2  11   0.1882    0.7405   0.3722   0.0494  -0.3222  -0.0255  29.01    0.0
2137 422933.000   40.097023614 -105.147247533  1578.9085   2  11   0.1727    0.6796   0.3417   0.0452  -0.2958  -0.0233  29.01    0.0
2137 422934.000   40.097023532 -105.147247389  1578.9117   2  11   0.1596    0.6280   0.3159   0.0417  -0.2733  -0.0215  29.01    0.0
2137 422935.000   40.097023425 -105.147247339  1578.9110   2  11   0.1484    0.5837   0.2936   0.0387  -0.2540  -0.0199  29.01    0.0
2137 422936.000   40.097023297 -105.147247299  1578.9209   2  11   0.1387    0.5452   0.2743   0.0361  -0.2373  -0.0185  29.01    0.0
2137 422937.000   40.097023138 -105.147247291  1578.9285   2  11   0.1301    0.5114   0.2573   0.0338  -0.2225  -0.0174  29.01    0.0
2137 422938.000   40.097023013 -105.147247249  1578.9213   2  11   0.1226    0.4816   0.2423   0.0317  -0.2095  -0.0163  29.01    0.0
2137 422939.000   40.097022905 -105.147247165  1578.9176   2  11   0.1159    0.4550   0.2290   0.0299  -0.1979  -0.0154  29.01    0.0
2137 422940.000   40.097022716 -105.147247032  1578.9171   2  11   0.1099    0.4312   0.2170   0.0283  -0.1875  -0.0146  29.00    0.0
2137 422941.000   40.097022567 -105.147246979  1578.9136   2  11   0.1045    0.4098   0.2062   0.0269  -0.1782  -0.0138  29.00    0.0
2137 422942.000   40.097022423 -105.147246857  1578.9131   2  11   0.0996    0.3903   0.1964   0.0255  -0.1697  -0.0131  29.00    0.0
2137 422943.000   40.097022266 -105.147246781  1578.9235   2  11   0.0951    0.3727   0.1875   0.0243  -0.1619  -0.0125  29.00    0.0
2137 422944.000   40.097022058 -105.147246648  1578.9248   2  11   0.0910    0.3565   0.1794   0.0232  -0.1549  -0.0120  29.00    0.0
2137 422945.000   40.097021907 -105.147246527  1578.9216   2  11   0.0873    0.3416   0.1719   0.0222  -0.1484  -0.0114  29.00    0.0
2137 422946.000   40.097021720 -105.147246430  1578.9220   2  11   0.0838    0.3280   0.1650   0.0213  -0.1424  -0.0110  29.00    0.0
2137 422947.000   40.097021570 -105.147246396  1578.9230   2  11   0.0807    0.3153   0.1587   0.0205  -0.1368  -0.0105  29.00    0.0
2137 422948.000   40.097021417 -105.147246287  1578.9260   2  11   0.0777    0.3036   0.1528   0.0197  -0.1317  -0.0101  29.01    0.0
2137 422949.000   40.097021294 -105.147246184  1578.9294   2  11   0.0750    0.2927   0.1473   0.0189  -0.1269  -0.0098  29.01    0.0
2137 422950.000   40.097021174 -105.147246066  1578.9380   2  11   0.0725    0.2826   0.1422   0.0182  -0.1225  -0.0094  29.01    0.0
2137 422951.000   40.097021084 -105.147246005  1578.9372   2  11   0.0701    0.2731   0.1374   0.0176  -0.1183  -0.0091  29.01    0.0
2137 422952.000   40.097020992 -105.147245929  1578.9426   2  11   0.0679    0.2642   0.1329   0.0170  -0.1144  -0.0088  29.01    0.0
2137 422953.000   40.097020866 -105.147245872  1578.9443   2  11   0.0658    0.2559   0.1287   0.0164  -0.1108  -0.0085  29.01    0.0
2137 422954.000   40.097020744 -105.147245849  1578.9520   2  11   0.0638    0.2480   0.1248   0.0159  -0.1073  -0.0082  29.01    0.0
2137 422955.000   40.097020657 -105.147245836  1578.9574   2  11   0.0620    0.2406   0.1210   0.0154  -0.1041  -0.0080  29.01    0.0
2137 422956.000   40.097020556 -105.147245798  1578.9707   2  11   0.0602    0.2337   0.1175   0.0149  -0.1010  -0.0077  29.00    0.0
2137 422957.000   40.097020507 -105.147245838  1578.9695   2  11   0.0586    0.2271   0.1142   0.0145  -0.0981  -0.0075  29.00    0.0
2137 422958.000   40.097020459 -105.147245833  1578.9619   2  11   0.0570    0.2208   0.1110   0.0140  -0.0953  -0.0073  29.00    0.0
2137 422959.000   40.097020422 -105.147245827  1578.9553   2  11   0.0556    0.2149   0.1080   0.0136  -0.0927  -0.0071  29.00    0.0
2137 422960.000   40.097020378 -105.147245819  1578.9445   2  11   0.0542    0.2093   0.1052   0.0133  -0.0902  -0.0069  29.00    0.0
2137 422961.000   40.097020358 -105.147245848  1578.9353   2  11   0.0528    0.2039   0.1025   0.0129  -0.0879  -0.0067  29.00    0.0
2137 422962.000   40.097020336 -105.147245845  1578.9291   2  11   0.0516    0.1988   0.0999   0.0125  -0.0856  -0.0065  29.00    0.0
2137 422963.000   40.097020316 -105.147245905  1578.9183   2  11   0.0504    0.1940   0.0975   0.0122  -0.0835  -0.0064  29.00    0.0
2137 422964.000   40.097020300 -105.147245936  1578.9063   2  11   0.0492    0.1893   0.0951   0.0119  -0.0814  -0.0062  29.00    0.0
2137 422965.000   40.097020289 -105.147245978  1578.8926   2  11   0.0481    0.1849   0.0929   0.0116  -0.0795  -0.0060  29.00    0.0
2137 422966.000   40.097020310 -105.147246035  1578.8794   2  11   0.0471    0.1807   0.0908   0.0113  -0.0776  -0.0059  29.00    0.0
2137 422967.000   40.097020323 -105.147246095  1578.8696   2  11   0.0461    0.1766   0.0887   0.0110  -0.0758  -0.0058  29.00    0.0
2137 422968.000   40.097020372 -105.147246196  1578.8601   2  11   0.0451    0.1727   0.0867   0.0108  -0.0741  -0.0056  29.00    0.0
2137 422969.000   40.097020389 -105.147246249  1578.8479   2  11   0.0442    0.1690   0.0849   0.0105  -0.0724  -0.0055  29.00    0.0
2137 422970.000   40.097020418 -105.147246296  1578.8442   2  11   0.0433    0.1654   0.0830   0.0103  -0.0709  -0.0054  29.00    0.0
2137 422971.000   40.097020446 -105.147246380  1578.8362   2  11   0.0425    0.1619   0.0813   0.0100  -0.0693  -0.0052  29.00    0.0
2137 422972.000   40.097020509 -105.147246450  1578.8282   2  11   0.0416    0.1586   0.0796   0.0098  -0.0679  -0.0051  29.01    0.0
2137 422973.000   40.097020535 -105.147246541  1578.8257   2  11   0.0409    0.1554   0.0780   0.0096  -0.0664  -0.0050  29.01    0.0
2137 422974.000   40.097020564 -105.147246613  1578.8231   2  11   0.0401    0.1523   0.0764   0.0094  -0.0651  -0.0049  29.01    0.0
2137 422975.000   40.097020616 -105.147246682  1578.8189   2  11   0.0394    0.1494   0.0749   0.0092  -0.0638  -0.0048  29.01    0.0
2137 422976.000   40.097020638 -105.147246732  1578.8167   2  11   0.0387    0.1465   0.0735   0.0090  -0.0625  -0.0047  29.01    0.0
2137 422977.000   40.097020684 -105.147246821  1578.8094   2  11   0.0380    0.1437   0.0721   0.0088  -0.0613  -0.0046  29.01    0.0
2137 422978.000   40.097020715 -105.147246891  1578.8071   2  11   0.0373    0.1411   0.0708   0.0086  -0.0601  -0.0045  29.01    0.0
2137 422979.000   40.097020730 -105.147246952  1578.7999   2  11   0.0367    0.1385   0.0694   0.0084  -0.0589  -0.0044  29.01    0.0
2137 422980.000   40.097020778 -105.147247051  1578.7902   2  11   0.0361    0.1360   0.0682   0.0082  -0.0578  -0.0044  29.01    0.0
2137 422981.000   40.097020840 -105.147247121  1578.7789   2  11   0.0355    0.1336   0.0670   0.0081  -0.0567  -0.0043  29.01    0.0
2137 422982.000   40.097020869 -105.147247180  1578.7680   2  11   0.0350    0.1312   0.0658   0.0079  -0.0557  -0.0042  29.01    0.0
2137 422983.000   40.097020907 -105.147247260  1578.7568   2  11   0.0344    0.1290   0.0646   0.0077  -0.0547  -0.0041  29.01    0.0
2137 422984.000   40.097020941 -105.147247298  1578.7477   2  11   0.0339    0.1268   0.0635   0.0076  -0.0537  -0.0040  29.01    0.0
2137 422985.000   40.097020962 -105.147247314  1578.7390   2  11   0.0334    0.1246   0.0624   0.0075  -0.0528  -0.0040  29.01    0.0
2137 422986.000   40.097020993 -105.147247357  1578.7315   2  11   0.0329    0.1226   0.0614   0.0073  -0.0518  -0.0039  29.01    0.0
2137 422987.000   40.097021024 -105.147247409  1578.7244   2  11   0.0324    0.1206   0.0604   0.0072  -0.0510  -0.0038  29.01    0.0
2137 422988.000   40.097021072 -105.147247478  1578.7191   2  11   0.0319    0.1186   0.0594   0.0070  -0.0501  -0.0037  29.01    0.0
2137 422989.000   40.097021106 -105.147247540  1578.7110   2  11   0.0314    0.1167   0.0584   0.0069  -0.0492  -0.0037  29.01    0.0
2137 422990.000   40.097021124 -105.147247557  1578.7057   2  11   0.0310    0.1149   0.0575   0.0068  -0.0484  -0.0036  29.01    0.0
2137 422991.000   40.097021161 -105.147247614  1578.7069   2  11   0.0306    0.1131   0.0566   0.0066  -0.0476  -0.0036  29.01    0.0
2137 422992.000   40.097021195 -105.147247663  1578.7018   2  11   0.0301    0.1113   0.0557   0.0065  -0.0468  -0.0035  29.01    0.0
2137 422993.000   40.097021231 -105.147247728  1578.7000   2  11   0.0297    0.1096   0.0548   0.0064  -0.0461  -0.0034  29.01    0.0
2137 422994.000   40.097021244 -105.147247764  1578.7042   2  11   0.0293    0.1080   0.0540   0.0063  -0.0453  -0.0034  29.01    0.0
2137 422995.000   40.097021250 -105.147247825  1578.7038   2  11   0.0290    0.1064   0.0532   0.0062  -0.0446  -0.0033  29.01    0.0
2137 422996.000   40.097021292 -105.147247871  1578.6993   2  11   0.0286    0.1048   0.0524   0.0061  -0.0439  -0.0033  29.01    0.0
2137 422997.000   40.097021295 -105.147247901  1578.7032   2  11   0.0282    0.1033   0.0516   0.0060  -0.0432  -0.0032  29.01    0.0
2137 422998.000   40.097021352 -105.147247927  1578.6968   2  11   0.0279    0.1018   0.0509   0.0059  -0.0426  -0.0032  29.01    0.0
2137 422999.000   40.097021367 -105.147247949  1578.6963   2  11   0.0275    0.1003   0.0501   0.0058  -0.0419  -0.0031  29.01    0.0
2137 423000.000   40.097021391 -105.147247968  1578.6961   2  11   0.0272    0.0989   0.0494   0.0057  -0.0413  -0.0031  29.00    0.0
2137 423001.000   40.097021393 -105.147247986  1578.6957   2  11   0.0268    0.0975   0.0487   0.0056  -0.0406  -0.0030  29.00    0.0
2137 423002.000   40.097021394 -105.147248001  1578.6964   2  11   0.0265    0.0962   0.0480   0.0055  -0.0400  -0.0030  29.00    0.0
2137 423003.000   40.097021390 -105.147248005  1578.6981   2  11   0.0262    0.0948   0.0473   0.0054  -0.0394  -0.0029  29.00    0.0
2137 423004.000   40.097021393 -105.147248046  1578.7110   2  11   0.0259    0.0935   0.0467   0.0053  -0.0389  -0.0029  29.00    0.0
2137 423005.000   40.097021405 -105.147248115  1578.7099   2  11   0.0256    0.0923   0.0460   0.0052  -0.0383  -0.0028  29.00    0.0
2137 423006.000   40.097021393 -105.147248157  1578.7150   2  11   0.0253    0.0910   0.0454   0.0051  -0.0377  -0.0028  29.00    0.0
2137 423007.000   40.097021389 -105.147248162  1578.7184   2  11   0.0250    0.0898   0.0448   0.0050  -0.0372  -0.0027  29.00    0.0
2137 423008.000   40.097021366 -105.147248200  1578.7289   2  11   0.0247    0.0886   0.0442   0.0049  -0.0367  -0.0027  29.01    0.0
2137 423009.000   40.097021339 -105.147248231  1578.7350   2  11   0.0245    0.0875   0.0436   0.0049  -0.0362  -0.0027  29.01    0.0
2137 423010.000   40.097021279 -105.147248208  1578.7427   2  11   0.0242    0.0864   0.0430   0.0048  -0.0356  -0.0026  29.01    0.0
2137 423011.000   40.097021222 -105.147248199  1578.7441   2  11   0.0239    0.0853   0.0425   0.0047  -0.0352  -0.0026  29.01    0.0
2137 423012.000   40.097021189 -105.147248190  1578.7506   2  11   0.0237    0.0842   0.0419   0.0046  -0.0347  -0.0025  29.01    0.0
2137 423013.000   40.097021159 -105.147248162  1578.7563   2  11   0.0234    0.0831   0.0414   0.0046  -0.0342  -0.0025  29.01    0.0
2137 423014.000   40.097021138 -105.147248159  1578.7669   2  12   0.0232    0.0821   0.0408   0.0045  -0.0337  -0.0024  29.01    0.0
2137 423015.000   40.097021096 -105.147248136  1578.7704   2  12   0.0228    0.0810   0.0401   0.0044  -0.0332  -0.0023  29.01    0.0
2137 423016.000   40.097021070 -105.147248118  1578.7759   2  12   0.0226    0.0800   0.0395   0.0043  -0.0327  -0.0022  29.00    0.0
2137 423017.000   40.097021028 -105.147248081  1578.7832   2  12   0.0223    0.0790   0.0389   0.0042  -0.0322  -0.0021  29.00    0.0
2137 423018.000   40.097021002 -105.147248014  1578.7924   2  12   0.0221    0.0780   0.0384   0.0041  -0.0318  -0.0020  29.00    0.0
2137 423019.000   40.097020958 -105.147248001  1578.7953   2  12   0.0218    0.0771   0.0379   0.0040  -0.0313  -0.0020  29.00    0.0
2137 423020.000   40.097020916 -105.147247930  1578.8041   2  12   0.0216    0.0762   0.0373   0.0040  -0.0309  -0.0019  29.00    0.0
2137 423021.000   40.097020866 -105.147247907  1578.8046   2  12   0.0214    0.0753   0.0369   0.0039  -0.0305  -0.0019  29.00    0.0
2137 423022.000   40.097020810 -105.147247860  1578.8110   2  12   0.0212    0.0744   0.0364   0.0038  -0.0301  -0.0018  29.00    0.0
2137 423023.000   40.097020786 -105.147247814  1578.8184   2  12   0.0210    0.0735   0.0359   0.0038  -0.0297  -0.0018  29.00    0.0
2137 423024.000   40.097020748 -105.147247800  1578.8153   2  12   0.0208    0.0726   0.0354   0.0037  -0.0293  -0.0018  29.00    0.0
2137 423025.000   40.097020731 -105.147247750  1578.8194   2  12   0.0206    0.0718   0.0350   0.0036  -0.0289  -0.0017  29.00    0.0
2137 423026.000   40.097020714 -105.147247727  1578.8166   2  12   0.0204    0.0710   0.0345   0.0036  -0.0285  -0.0017  29.00    0.0
2137 423027.000   40.097020699 -105.147247673  1578.8181   2  12   0.0202    0.0701   0.0341   0.0035  -0.0281  -0.0016  29.00    0.0
2137 423028.000   40.097020677 -105.147247679  1578.8157   2  12   0.0200    0.0693   0.0337   0.0035  -0.0278  -0.0016  29.00    0.0
2137 423029.000   40.097020682 -105.147247631  1578.8220   2  12   0.0198    0.0686   0.0333   0.0034  -0.0274  -0.0016  29.00    0.0
2137 423030.000   40.097020662 -105.147247621  1578.8268   2  12   0.0196    0.0678   0.0329   0.0033  -0.0270  -0.0015  29.00    0.0
2137 423031.000   40.097020655 -105.147247626  1578.8231   2  12   0.0195    0.0670   0.0325   0.0033  -0.0267  -0.0015  29.00    0.0
2137 423032.000   40.097020651 -105.147247597  1578.8247   2  12   0.0193    0.0663   0.0321   0.0032  -0.0264  -0.0015  29.01    0.0
2137 423033.000   40.097020658 -105.147247593  1578.8216   2  12   0.0191    0.0656   0.0317   0.0032  -0.0260  -0.0014  29.01    0.0
2137 423034.000   40.097020652 -105.147247614  1578.8186   2  12   0.0189    0.0648   0.0313   0.0031  -0.0257  -0.0014  29.01    0.0
2137 423035.000   40.097020658 -105.147247606  1578.8181   2  12   0.0188    0.0641   0.0310   0.0031  -0.0254  -0.0014  29.01    0.0
2137 423036.000   40.097020659 -105.147247613  1578.8126   2  12   0.0186    0.0634   0.0306   0.0030  -0.0251  -0.0014  29.01    0.0
2137 423037.000   40.097020677 -105.147247648  1578.8063   2  12   0.0185    0.0628   0.0302   0.0030  -0.0248  -0.0013  29.01    0.0
2137 423038.000   40.097020674 -105.147247644  1578.8049   2  12   0.0183    0.0621   0.0299   0.0029  -0.0245  -0.0013  29.01    0.0
2137 423039.000   40.097020694 -105.147247650  1578.7985   2  12   0.0181    0.0614   0.0295   0.0029  -0.0242  -0.0013  29.01    0.0
2137 423040.000   40.097020691 -105.147247673  1578.7979   2  12   0.0180    0.0608   0.0292   0.0028  -0.0239  -0.0012  29.01    0.0
2137 423041.000   40.097020695 -105.147247676  1578.7917   2  12   0.0178    0.0601   0.0289   0.0028  -0.0236  -0.0012  29.01    0.0
2137 423042.000   40.097020736 -105.147247713  1578.7868   2  12   0.0177    0.0595   0.0285   0.0027  -0.0233  -0.0012  29.01    0.0
2137 423043.000   40.097020740 -105.147247719  1578.7826   2  12   0.0176    0.0589   0.0282   0.0027  -0.0230  -0.0012  29.01    0.0
2137 423044.000   40.097020777 -105.147247733  1578.7797   2  12   0.0174    0.0583   0.0279   0.0027  -0.0227  -0.0011  29.01    0.0
2137 423045.000   40.097020824 -105.147247751  1578.7696   2  12   0.0173    0.0577   0.0276   0.0026  -0.0225  -0.0011  29.01    0.0
2137 423046.000   40.097020848 -105.147247771  1578.7657   2  12   0.0171    0.0571   0.0273   0.0026  -0.0222  -0.0011  29.01    0.0
2137 423047.000   40.097020868 -105.147247812  1578.7619   2  12   0.0170    0.0565   0.0270   0.0025  -0.0219  -0.0011  29.01    0.0
2137 423048.000   40.097020916 -105.147247847  1578.7568   2  12   0.0169    0.0559   0.0267   0.0025  -0.0217  -0.0011  29.01    0.0
2137 423049.000   40.097020963 -105.147247868  1578.7460   2  12   0.0167    0.0554   0.0264   0.0025  -0.0214  -0.0010  29.01    0.0
2137 423050.000   40.097020979 -105.147247879  1578.7363   2  12   0.0166    0.0548   0.0261   0.0024  -0.0212  -0.0010  29.01    0.0
2137 423051.000   40.097021020 -105.147247903  1578.7320   2  12   0.0165    0.0543   0.0259   0.0024  -0.0209  -0.0010  29.01    0.0
2137 423052.000   40.097021073 -105.147247942  1578.7216   2  12   0.0164    0.0537   0.0256   0.0023  -0.0207  -0.0010  29.01    0.0
2137 423053.000   40.097021110 -105.147247973  1578.7132   2  12   0.0162    0.0532   0.0253   0.0023  -0.0205  -0.0010  29.01    0.0
2137 423054.000   40.097021154 -105.147248010  1578.7002   2  12   0.0161    0.0527   0.0250   0.0023  -0.0202  -0.0009  29.01    0.0
2137 423055.000   40.097021198 -105.147248062  1578.6918   2  12   0.0160    0.0522   0.0248   0.0022  -0.0200  -0.0009  29.01    0.0
2137 423056.000   40.097021252 -105.147248095  1578.6840   2  12   0.0159    0.0517   0.0245   0.0022  -0.0198  -0.0009  29.01    0.0
2137 423057.000   40.097021323 -105.147248128  1578.6714   2  12   0.0158    0.0512   0.0243   0.0022  -0.0195  -0.0009  29.01    0.0
2137 423058.000   40.097021360 -105.147248154  1578.6617   2  12   0.0157    0.0507   0.0240   0.0021  -0.0193  -0.0009  29.01    0.0
2137 423059.000   40.097021418 -105.147248200  1578.6543   2  12   0.0156    0.0502   0.0238   0.0021  -0.0191  -0.0008  29.01    0.0
2137 423060.000   40.097021458 -105.147248227  1578.6468   2  12   0.0154    0.0497   0.0235   0.0021  -0.0189  -0.0008  29.00    0.0
2137 423061.000   40.097021486 -105.147248256  1578.6423   2  12   0.0153    0.0492   0.0233   0.0020  -0.0187  -0.0008  29.00    0.0
2137 423062.000   40.097021541 -105.147248311  1578.6330   2  12   0.0152    0.0488   0.0231   0.0020  -0.0185  -0.0008  29.00    0.0
2137 423063.000   40.097021572 -105.147248317  1578.6259   2  12   0.0151    0.0483   0.0228   0.0020  -0.0183  -0.0008  29.00    0.0
2137 423064.000   40.097021613 -105.147248363  1578.6166   2  12   0.0150    0.0478   0.0226   0.0019  -0.0181  -0.0008  29.00    0.0
2137 423065.000   40.097021633 -105.147248385  1578.6118   2  12   0.0149    0.0474   0.0224   0.0019  -0.0179  -0.0007  29.00    0.0
2137 423066.000   40.097021678 -105.147248400  1578.6015   2  12   0.0148    0.0470   0.0221   0.0019  -0.0177  -0.0007  29.00    0.0
2137 423067.000   40.097021703 -105.147248449  1578.5926   2  12   0.0147    0.0465   0.0219   0.0018  -0.0175  -0.0007  29.00    0.0
2137 423068.000   40.097021732 -105.147248491  1578.5825   2  12   0.0146    0.0461   0.0217   0.0018  -0.0173  -0.0007  29.01    0.0
2137 423069.000   40.097021764 -105.147248515  1578.5745   2  12   0.0145    0.0457   0.0215   0.0018  -0.0171  -0.0007  29.01    0.0
2137 423070.000   40.097021807 -105.147248541  1578.5634   2  12   0.0144    0.0452   0.0213   0.0018  -0.0169  -0.0007  29.01    0.0
2137 423071.000   40.097021860 -105.147248587  1578.5561   2  12   0.0143    0.0448   0.0211   0.0017  -0.0167  -0.0007  29.01    0.0
2137 423072.000   40.097021874 -105.147248620  1578.5494   2  12   0.0142    0.0444   0.0209   0.0017  -0.0166  -0.0007  29.01    0.0
2137 423073.000   40.097021910 -105.147248635  1578.5424   2  12   0.0141    0.0440   0.0207   0.0017  -0.0164  -0.0006  29.01    0.0
2137 423074.000   40.097021938 -105.147248671  1578.5400   2  12   0.0141    0.0436   0.0205   0.0017  -0.0162  -0.0006  29.01    0.0
2137 423075.000   40.097021967 -105.147248698  1578.5333   2  12   0.0140    0.0432   0.0203   0.0016  -0.0160  -0.0006  29.01    0.0
2137 423076.000   40.097021990 -105.147248705  1578.5291   2  12   0.0139    0.0429   0.0201   0.0016  -0.0159  -0.0006  29.00    0.0
2137 423077.000   40.097022010 -105.147248713  1578.5249   2  12   0.0138    0.0425   0.0199   0.0016  -0.0157  -0.0006  29.00    0.0
2137 423078.000   40.097022050 -105.147248734  1578.5203   2  12   0.0137    0.0421   0.0197   0.0016  -0.0155  -0.0006  29.00    0.0
2137 423079.000   40.097022069 -105.147248738  1578.5174   2  12   0.0136    0.0417   0.0195   0.0015  -0.0154  -0.0006  29.00    0.0
2137 423080.000   40.097022099 -105.147248792  1578.5129   2  12   0.0135    0.0414   0.0194   0.0015  -0.0152  -0.0006  29.00    0.0
2137 423081.000   40.097022122 -105.147248818  1578.5087   2  12   0.0135    0.0410   0.0192   0.0015  -0.0151  -0.0005  29.00    0.0
2137 423082.000   40.097022122 -105.147248827  1578.5077   2  12   0.0134    0.0406   0.0190   0.0015  -0.0149  -0.0005  29.00    0.0
2137 423083.000   40.097022144 -105.147248846  1578.5037   2  12   0.0133    0.0403   0.0188   0.0014  -0.0148  -0.0005  29.00    0.0
2137 423084.000   40.097022142 -105.147248858  1578.4997   2  12   0.0132    0.0399   0.0187   0.0014  -0.0146  -0.0005  29.00    0.0
2137 423085.000   40.097022152 -105.147248892  1578.4993   2  12   0.0131    0.0396   0.0185   0.0014  -0.0145  -0.0005  29.00    0.0
2137 423086.000   40.097022191 -105.147248900  1578.4910   2  12   0.0131    0.0393   0.0183   0.0014  -0.0143  -0.0005  29.00    0.0
2137 423087.000   40.097022204 -105.147248898  1578.4880   2  12   0.0130    0.0389   0.0181   0.0013  -0.0142  -0.0005  29.00    0.0
2137 423088.000   40.097022217 -105.147248925  1578.4833   2  12   0.0129    0.0386   0.0180   0.0013  -0.0140  -0.0005  29.00    0.0
2137 423089.000   40.097022227 -105.147248917  1578.4750   2  12   0.0128    0.0383   0.0178   0.0013  -0.0139  -0.0005  29.00    0.0
2137 423090.000   40.097022273 -105.147248928  1578.4719   2  12   0.0128    0.0379   0.0177   0.0013  -0.0137  -0.0005  29.00    0.0
2137 423091.000   40.097022282 -105.147248946  1578.4689   2  12   0.0127    0.0376   0.0175   0.0013  -0.0136  -0.0004  29.00    0.0
2137 423092.000   40.097022315 -105.147248961  1578.4645   2  12   0.0126    0.0373   0.0173   0.0012  -0.0135  -0.0004  29.01    0.0
2137 423093.000   40.097022339 -105.147248969  1578.4620   2  12   0.0125    0.0370   0.0172   0.0012  -0.0133  -0.0004  29.01    0.0
2137 423094.000   40.097022369 -105.147248973  1578.4543   2  12   0.0125    0.0367   0.0170   0.0012  -0.0132  -0.0004  29.01    0.0
2137 423095.000   40.097022376 -105.147248975  1578.4528   2  12   0.0124    0.0364   0.0169   0.0012  -0.0131  -0.0004  29.01    0.0
2137 423096.000   40.097022413 -105.147248988  1578.4502   2  12   0.0123    0.0361   0.0167   0.0012  -0.0129  -0.0004  29.01    0.0
2137 423097.000   40.097022432 -105.147249022  1578.4470   2  12   0.0123    0.0358   0.0166   0.0011  -0.0128  -0.0004  29.01    0.0
2137 423098.000   40.097022465 -105.147249037  1578.4420   2  12   0.0122    0.0355   0.0165   0.0011  -0.0127  -0.0004  29.01    0.0
2137 423099.000   40.097022482 -105.147249051  1578.4360   2  12   0.0121    0.0352   0.0163   0.0011  -0.0126  -0.0004  29.01    0.0
2137 423100.000   40.097022491 -105.147249059  1578.4341   2  12   0.0121    0.0349   0.0162   0.0011  -0.0124  -0.0004  29.01    0.0
2137 423101.000   40.097022518 -105.147249098  1578.4300   2  12   0.0120    0.0346   0.0160   0.0011  -0.0123  -0.0004  29.01    0.0
2137 423102.000   40.097022520 -105.147249103  1578.4247   2  12   0.0119    0.0343   0.0159   0.0011  -0.0122  -0.0004  29.01    0.0
2137 423103.000   40.097022534 -105.147249139  1578.4237   2  12   0.0119    0.0341   0.0158   0.0010  -0.0121  -0.0003  29.01    0.0
2137 423104.000   40.097022553 -105.147249129  1578.4213   2  12   0.0118    0.0338   0.0156   0.0010  -0.0120  -0.0003  29.01    0.0
2137 423105.000   40.097022549 -105.147249168  1578.4189   2  12   0.0118    0.0335   0.0155   0.0010  -0.0118  -0.0003  29.01    0.0
2137 423106.000   40.097022559 -105.147249168  1578.4130   2  12   0.0117    0.0333   0.0154   0.0010  -0.0117  -0.0003  29.01    0.0
2137 423107.000   40.097022570 -105.147249192  1578.4074   2  12   0.0116    0.0330   0.0152   0.0010  -0.0116  -0.0003  29.01    0.0
2137 423108.000   40.097022581 -105.147249213  1578.4074   2  12   0.0116    0.0327   0.0151   0.0010  -0.0115  -0.0003  29.01    0.0
2137 423109.000   40.097022604 -105.147249210  1578.4032   2  12   0.0115    0.0325   0.0150   0.0009  -0.0114  -0.0003  29.01    0.0
2137 423110.000   40.097022573 -105.147249213  1578.4050   2  12   0.0115    0.0322   0.0149   0.0009  -0.0113  -0.0003  29.01    0.0
2137 423111.000   40.097022595 -105.147249218  1578.4042   2  12   0.0114    0.0320   0.0147   0.0009  -0.0112  -0.0003  29.01    0.0
2137 423112.000   40.097022607 -105.147249205  1578.4005   2  12   0.0113    0.0317   0.0146   0.0009  -0.0111  -0.0003  29.01    0.0
2137 423113.000   40.097022635 -105.147249228  1578.3944   2  12   0.0113    0.0315   0.0145   0.0009  -0.0110  -0.0003  29.01    0.0
2137 423114.000   40.097022637 -105.147249215  1578.3973   2  12   0.0112    0.0312   0.0144   0.0009  -0.0109  -0.0003  29.01    0.0
2137 423115.000   40.097022634 -105.147249231  1578.3923   2  12   0.0112    0.0310   0.0143   0.0008  -0.0108  -0.0003  29.01    0.0
2137 423116.000   40.097022634 -105.147249208  1578.3919   2  12   0.0111    0.0307   0.0141   0.0008  -0.0107  -0.0003  29.01    0.0
2137 423117.000   40.097022638 -105.147249252  1578.3861   2  12   0.0111    0.0305   0.0140   0.0008  -0.0106  -0.0003  29.01    0.0
2137 423118.000   40.097022661 -105.147249279  1578.3863   2  12   0.0110    0.0303   0.0139   0.0008  -0.0105  -0.0003  29.01    0.0
2137 423119.000   40.097022689 -105.147249311  1578.3863   2  12   0.0109    0.0300   0.0138   0.0008  -0.0104  -0.0002  29.01    0.0
2137 423120.000   40.097022692 -105.147249298  1578.3862   2  12   0.0109    0.0298   0.0137   0.0008  -0.0103  -0.0002  29.00    0.0
2137 423121.000   40.097022683 -105.147249319  1578.3859   2  12   0.0108    0.0296   0.0136   0.0008  -0.0102  -0.0002  29.00    0.0
2137 423122.000   40.097022694 -105.147249339  1578.3826   2  12   0.0108    0.0294   0.0135   0.0007  -0.0101  -0.0002  29.00    0.0
2137 423123.000   40.097022706 -105.147249375  1578.3804   2  12   0.0107    0.0291   0.0134   0.0007  -0.0100  -0.0002  29.00    0.0
2137 423124.000   40.097022713 -105.147249399  1578.3811   2  12   0.0107    0.0289   0.0133   0.0007  -0.0099  -0.0002  29.00    0.0
2137 423125.000   40.097022710 -105.147249419  1578.3779   2  12   0.0106    0.0287   0.0132   0.0007  -0.0098  -0.0002  29.00    0.0
2137 423126.000   40.097022734 -105.147249459  1578.3730   2  12   0.0106    0.0285   0.0131   0.0007  -0.0097  -0.0002  29.00    0.0
2137 423127.000   40.097022745 -105.147249478  1578.3765   2  12   0.0105    0.0283   0.0130   0.0007  -0.0096  -0.0002  29.00    0.0
2137 423128.000   40.097022759 -105.147249491  1578.3763   2  12   0.0105    0.0281   0.0129   0.0007  -0.0096  -0.0002  29.01    0.0
2137 423129.000   40.097022770 -105.147249509  1578.3773   2  12   0.0104    0.0279   0.0128   0.0007  -0.0095  -0.0002  29.01    0.0
2137 423130.000   40.097022789 -105.147249513  1578.3750   2  12   0.0104    0.0277   0.0127   0.0006  -0.0094  -0.0002  29.01    0.0
2137 423131.000   40.097022798 -105.147249525  1578.3759   2  12   0.0103    0.0275   0.0126   0.0006  -0.0093  -0.0002  29.01    0.0
2137 423132.000   40.097022823 -105.147249584  1578.3717   2  12   0.0103    0.0273   0.0125   0.0006  -0.0092  -0.0002  29.01    0.0
2137 423133.000   40.097022837 -105.147249606  1578.3721   2  12   0.0103    0.0271   0.0124   0.0006  -0.0091  -0.0002  29.01    0.0
2137 423134.000   40.097022890 -105.147249635  1578.3641   2  12   0.0102    0.0269   0.0123   0.0006  -0.0091  -0.0002  29.01    0.0
2137 423135.000   40.097022908 -105.147249659  1578.3621   2  12   0.0102    0.0267   0.0122   0.0006  -0.0090  -0.0002  29.01    0.0
2137 423136.000   40.097022921 -105.147249702  1578.3604   2  12   0.0101    0.0265   0.0121   0.0006  -0.0089  -0.0002  29.00    0.0
2137 423137.000   40.097022942 -105.147249726  1578.3570   2  12   0.0101    0.0263   0.0120   0.0006  -0.0088  -0.0002  29.00    0.0
2137 423138.000   40.097022926 -105.147249717  1578.3586   2  12   0.0100    0.0261   0.0119   0.0006  -0.0087  -0.0002  29.00    0.0
2137 423139.000   40.097022965 -105.147249773  1578.3504   2  12   0.0100    0.0259   0.0118   0.0005  -0.0087  -0.0002  29.00    0.0
2137 423140.000   40.097022951 -105.147249790  1578.3509   2  12   0.0099    0.0257   0.0117   0.0005  -0.0086  -0.0002  29.00    0.0
2137 423141.000   40.097022972 -105.147249847  1578.3456   2  12   0.0099    0.0255   0.0116   0.0005  -0.0085  -0.0001  29.00    0.0
2137 423142.000   40.097022974 -105.147249862  1578.3430   2  12   0.0099    0.0254   0.0116   0.0005  -0.0084  -0.0001  29.00    0.0
2137 423143.000   40.097022984 -105.147249907  1578.3435   2  12   0.0098    0.0252   0.0115   0.0005  -0.0084  -0.0001  29.00    0.0
2137 423144.000   40.097022968 -105.147249925  1578.3406   2  12   0.0098    0.0250   0.0114   0.0005  -0.0083  -0.0001  29.00    0.0
2137 423145.000   40.097022956 -105.147249948  1578.3405   2  12   0.0097    0.0248   0.0113   0.0005  -0.0082  -0.0001  29.00    0.0
2137 423146.000   40.097022953 -105.147249992  1578.3370   2  12   0.0097    0.0247   0.0112   0.0005  -0.0082  -0.0001  29.00    0.0
2137 423147.000   40.097022936 -105.147250009  1578.3350   2  12   0.0096    0.0245   0.0111   0.0005  -0.0081  -0.0001  29.00    0.0
2137 423148.000   40.097022913 -105.147250031  1578.3348   2  12   0.0096    0.0243   0.0111   0.0004  -0.0080  -0.0001  29.00    0.0
2137 423149.000   40.097022885 -105.147250059  1578.3373   2  12   0.0096    0.0242   0.0110   0.0004  -0.0080  -0.0001  29.00    0.0
2137 423150.000   40.097022854 -105.147250052  1578.3388   2  12   0.0095    0.0240   0.0109   0.0004  -0.0079  -0.0001  29.00    0.0
2137 423151.000   40.097022850 -105.147250128  1578.3359   2  13   0.0095    0.0238   0.0108   0.0004  -0.0078  -0.0001  29.00    0.0
2137 423152.000   40.097022823 -105.147250097  1578.3389   2  13   0.0094    0.0237   0.0106   0.0004  -0.0078  -0.0001  29.01    0.0
2137 423153.000   40.097022789 -105.147250148  1578.3375   2  13   0.0094    0.0235   0.0105   0.0004  -0.0077  -0.0001  29.01    0.0
2137 423154.000   40.097022760 -105.147250145  1578.3408   2  13   0.0094    0.0233   0.0104   0.0004  -0.0076  -0.0001  29.01    0.0
2137 423155.000   40.097022751 -105.147250176  1578.3371   2  13   0.0093    0.0232   0.0104   0.0004  -0.0076  -0.0001  29.01    0.0
2137 423156.000   40.097022704 -105.147250187  1578.3409   2  13   0.0093    0.0230   0.0103   0.0004  -0.0075  -0.0001  29.01    0.0
2137 423157.000   40.097022661 -105.147250212  1578.3430   2  13   0.0092    0.0229   0.0102   0.0004  -0.0074  -0.0001  29.01    0.0
2137 423158.000   40.097022616 -105.147250204  1578.3389   2  13   0.0092    0.0227   0.0101   0.0004  -0.0074  -0.0000  29.01    0.0
2137 423159.000   40.097022565 -105.147250228  1578.3428   2  13   0.0092    0.0226   0.0100   0.0003  -0.0073  -0.0000  29.01    0.0
2137 423160.000   40.097022525 -105.147250217  1578.3472   2  13   0.0091    0.0224   0.0100   0.0003  -0.0073  -0.0000  29.01    0.0
2137 423161.000   40.097022493 -105.147250258  1578.3408   2  13   0.0091    0.0223   0.0099   0.0003  -0.0072  -0.0000  29.01    0.0
2137 423162.000   40.097022422 -105.147250224  1578.3490   2  13   0.0091    0.0221   0.0098   0.0003  -0.0071  -0.0000  29.01    0.0
2137 423163.000   40.097022375 -105.147250255  1578.3509   2  13   0.0090    0.0220   0.0097   0.0003  -0.0071  -0.0000  29.01    0.0
2137 423164.000   40.097022340 -105.147250248  1578.3479   2  13   0.0090    0.0218   0.0097   0.0003  -0.0070  -0.0000  29.01    0.0
2137 423165.000   40.097022251 -105.147250230  1578.3581   2  13   0.0089    0.0217   0.0096   0.0003  -0.0070  -0.0000  29.01    0.0
2137 423166.000   40.097022234 -105.147250248  1578.3562   2  13   0.0089    0.0215   0.0095   0.0003  -0.0069  -0.0000  29.01    0.0
2137 423167.000   40.097022195 -105.147250251  1578.3567   2  13   0.0089    0.0214   0.0095   0.0003  -0.0068  -0.0000  29.01    0.0
2137 423168.000   40.097022139 -105.147250250  1578.3614   2  13   0.0088    0.0213   0.0094   0.0003  -0.0068  -0.0000  29.01    0.0
2137 423169.000   40.097022105 -105.147250228  1578.3644   2  13   0.0088    0.0211   0.0093   0.0003  -0.0067  -0.0000  29.01    0.0
2137 423170.000   40.097022077 -105.147250257  1578.3625   2  13   0.0088    0.0210   0.0092   0.0003  -0.0067  -0.0000  29.01    0.0
2137 423171.000   40.097022056 -105.147250245  1578.3676   2  13   0.0087    0.0209   0.0092   0.0003  -0.0066  -0.0000  29.01    0.0
2137 423172.000   40.097022034 -105.147250254  1578.3711   2  13   0.0087    0.0207   0.0091   0.0002  -0.0066  -0.0000  29.01    0.0
2137 423173.000   40.097022054 -105.147250273  1578.3683   2  13   0.0087    0.0206   0.0090   0.0002  -0.0065   0.0000  29.01    0.0
2137 423174.000   40.097022012 -105.147250268  1578.3718   2  13   0.0086    0.0205   0.0090   0.0002  -0.0065   0.0000  29.01    0.0
2137 423175.000   40.097022002 -105.147250276  1578.3740   2  13   0.0086    0.0203   0.0089   0.0002  -0.0064   0.0000  29.01    0.0
2137 423176.000   40.097022005 -105.147250293  1578.3703   2  13   0.0086    0.0202   0.0089   0.0002  -0.0064   0.0000  29.01    0.0
2137 423177.000   40.097021994 -105.147250293  1578.3662   2  13   0.0085    0.0201   0.0088   0.0002  -0.0063   0.0000  29.01    0.0
2137 423178.000   40.097021979 -105.147250298  1578.3633   2  13   0.0085    0.0199   0.0087   0.0002  -0.0063   0.0000  29.01    0.0
2137 423179.000   40.097021969 -105.147250296  1578.3613   2  13   0.0085    0.0198   0.0087   0.0002  -0.0062   0.0000  29.01    0.0
2137 423180.000   40.097021942 -105.147250303  1578.3625   2  13   0.0085    0.0197   0.0086   0.0002  -0.0062   0.0000  29.00    0.0
2137 423181.000   40.097021957 -105.147250314  1578.3591   2  13   0.0084    0.0196   0.0086   0.0002  -0.0061   0.0000  29.00    0.0
2137 423182.000   40.097021975 -105.147250317  1578.3574   2  13   0.0084    0.0195   0.0085   0.0002  -0.0061   0.0000  29.00    0.0
2137 423183.000   40.097021964 -105.147250334  1578.3592   2  13   0.0084    0.0193   0.0084   0.0002  -0.0060   0.0000  29.00    0.0
2137 423184.000   40.097021992 -105.147250350  1578.3521   2  13   0.0083    0.0192   0.0084   0.0002  -0.0060   0.0000  29.00    0.0
2137 423185.000   40.097021991 -105.147250332  1578.3549   2  13   0.0083    0.0191   0.0083   0.0002  -0.0060   0.0000  29.00    0.0
2137 423186.000   40.097021998 -105.147250344  1578.3551   2  13   0.0083    0.0190   0.0083   0.0002  -0.0059   0.0000  29.00    0.0
2137 423187.000   40.097022029 -105.147250346  1578.3470   2  13   0.0082    0.0189   0.0082   0.0002  -0.0059   0.0000  29.00    0.0
2137 423188.000   40.097022043 -105.147250330  1578.3473   2  13   0.0082    0.0187   0.0082   0.0001  -0.0058   0.0000  29.01    0.0
2137 423189.000   40.097022051 -105.147250335  1578.3428   2  13   0.0082    0.0186   0.0081   0.0001  -0.0058   0.0000  29.01    0.0
2137 423190.000   40.097022061 -105.147250305  1578.3433   2  13   0.0082    0.0185   0.0080   0.0001  -0.0057   0.0000  29.01    0.0
2137 423191.000   40.097022095 -105.147250338  1578.3369   2  13   0.0081    0.0184   0.0080   0.0001  -0.0057   0.0000  29.01    0.0
2137 423192.000   40.097022097 -105.147250327  1578.3386   2  13   0.0081    0.0183   0.0079   0.0001  -0.0056   0.0000  29.01    0.0
2137 423193.000   40.097022136 -105.147250363  1578.3322   2  13   0.0081    0.0182   0.0079   0.0001  -0.0056   0.0000  29.01    0.0
2137 423194.000   40.097022156 -105.147250373  1578.3330   2  13   0.0080    0.0181   0.0078   0.0001  -0.0056   0.0000  29.01    0.0
2137 423195.000   40.097022189 -105.147250393  1578.3272   2  13   0.0080    0.0180   0.0078   0.0001  -0.0055   0.0000  29.01    0.0
2137 423196.000   40.097022239 -105.147250419  1578.3199   2  13   0.0080    0.0179   0.0077   0.0001  -0.0055   0.0000  29.00    0.0
2137 423197.000   40.097022260 -105.147250465  1578.3182   2  13   0.0080    0.0178   0.0077   0.0001  -0.0054   0.0001  29.00    0.0
2137 423198.000   40.097022299 -105.147250476  1578.3191   2  13   0.0079    0.0177   0.0076   0.0001  -0.0054   0.0001  29.00    0.0
2137 423199.000   40.097022348 -105.147250493  1578.3085   2  13   0.0079    0.0176   0.0076   0.0001  -0.0054   0.0001  29.00    0.0
2137 423200.000   40.097022397 -105.147250510  1578.3055   2  13   0.0079    0.0174   0.0075   0.0001  -0.0053   0.0001  29.00    0.0
2137 423201.000   40.097022401 -105.147250545  1578.3048   2  13   0.0078    0.0173   0.0075   0.0001  -0.0053   0.0001  29.00    0.0
2137 423202.000   40.097022425 -105.147250543  1578.3032   2  13   0.0078    0.0172   0.0074   0.0001  -0.0053   0.0001  29.00    0.0
2137 423203.000   40.097022477 -105.147250572  1578.2942   2  13   0.0078    0.0171   0.0074   0.0001  -0.0052   0.0001  29.00    0.0
2137 423204.000   40.097022508 -105.147250576  1578.2889   2  13   0.0078    0.0170   0.0073   0.0001  -0.0052   0.0001  29.00    0.0
2137 423205.000   40.097022540 -105.147250592  1578.2848   2  13   0.0077    0.0169   0.0073   0.0001  -0.0051   0.0001  29.00    0.0
2137 423206.000   40.097022566 -105.147250605  1578.2823   2  13   0.0077    0.0169   0.0072   0.0001  -0.0051   0.0001  29.00    0.0
2137 423207.000   40.097022630 -105.147250629  1578.2723   2  13   0.0077    0.0168   0.0072   0.0000  -0.0051   0.0001  29.00    0.0
2137 423208.000   40.097022638 -105.147250649  1578.2739   2  13   0.0077    0.0167   0.0071   0.0000  -0.0050   0.0001  29.00    0.0
2137 423209.000   40.097022678 -105.147250659  1578.2673   2  13   0.0076    0.0166   0.0071   0.0000  -0.0050   0.0001  29.00    0.0
2137 423210.000   40.097022696 -105.147250693  1578.2613   2  13   0.0076    0.0165   0.0071   0.0000  -0.0050   0.0001  29.00    0.0
2137 423211.000   40.097022710 -105.147250701  1578.2606   2  13   0.0076    0.0164   0.0070   0.0000  -0.0049   0.0001  29.00    0.0
2137 423212.000   40.097022771 -105.147250710  1578.2519   2  13   0.0076    0.0163   0.0070   0.0000  -0.0049   0.0001  29.01    0.0
2137 423213.000   40.097022794 -105.147250728  1578.2510   2  13   0.0075    0.0162   0.0069   0.0000  -0.0049   0.0001  29.01    0.0
2137 423214.000   40.097022830 -105.147250733  1578.2439   2  13   0.0075    0.0161   0.0069   0.0000  -0.0048   0.0001  29.01    0.0
2137 423215.000   40.097022869 -105.147250769  1578.2375   2  13   0.0075    0.0160   0.0068   0.0000  -0.0048   0.0001  29.01    0.0
2137 423216.000   40.097022889 -105.147250780  1578.2345   2  13   0.0075    0.0159   0.0068   0.0000  -0.0048   0.0001  29.01    0.0
2137 423217.000   40.097022914 -105.147250810  1578.2292   2  13   0.0074    0.0158   0.0068   0.0000  -0.0047   0.0001  29.01    0.0
2137 423218.000   40.097022936 -105.147250819  1578.2256   2  13   0.0074    0.0158   0.0067   0.0000  -0.0047   0.0001  29.01    0.0
2137 423219.000   40.097022947 -105.147250846  1578.2227   2  13   0.0074    0.0157   0.0067  -0.0000  -0.0047   0.0001  29.01    0.0
2137 423220.000   40.097022960 -105.147250854  1578.2218   2  13   0.0074    0.0156   0.0066  -0.0000  -0.0046   0.0001  29.01    0.0
2137 423221.000   40.097022984 -105.147250879  1578.2183   2  13   0.0074    0.0155   0.0066  -0.0000  -0.0046   0.0001  29.01    0.0
2137 423222.000   40.097023024 -105.147250912  1578.2142   2  13   0.0073    0.0154   0.0066  -0.0000  -0.0046   0.0001  29.01    0.0
2137 423223.000   40.097023015 -105.147250906  1578.2137   2  13   0.0073    0.0153   0.0065  -0.0000  -0.0045   0.0001  29.01    0.0
2137 423224.000   40.097023020 -105.147250933  1578.2085   2  13   0.0073    0.0152   0.0065  -0.0000  -0.0045   0.0001  29.01    0.0
2137 423225.000   40.097023023 -105.147250934  1578.2066   2  13   0.0073    0.0152   0.0064  -0.0000  -0.0045   0.0001  29.01    0.0
2137 423226.000   40.097023032 -105.147250918  1578.2050   2  13   0.0072    0.0151   0.0064  -0.0000  -0.0045   0.0001  29.01    0.0
2137 423227.000   40.097023018 -105.147250936  1578.2010   2  13   0.0072    0.0150   0.0064  -0.0000  -0.0044   0.0001  29.01    0.0
2137 423228.000   40.097023008 -105.147250953  1578.1957   2  13   0.0072    0.0149   0.0063  -0.0000  -0.0044   0.0001  29.01    0.0
2137 423229.000   40.097023006 -105.147250958  1578.1934   2  13   0.0072    0.0148   0.0063  -0.0000  -0.0044   0.0001  29.01    0.0
2137 423230.000   40.097023000 -105.147250964  1578.1932   2  13   0.0071    0.0148   0.0063  -0.0000  -0.0043   0.0001  29.01    0.0
2137 423231.000   40.097023025 -105.147250979  1578.1890   2  13   0.0071    0.0147   0.0062  -0.0000  -0.0043   0.0001  29.01    0.0
2137 423232.000   40.097023010 -105.147250976  1578.1893   2  13   0.0071    0.0146   0.0062  -0.0000  -0.0043   0.0001  29.01    0.0
2137 423233.000   40.097022980 -105.147250970  1578.1909   2  13   0.0071    0.0145   0.0061  -0.0000  -0.0043   0.0001  29.01    0.0
2137 423234.000   40.097022982 -105.147250934  1578.1902   2  13   0.0071    0.0145   0.0061  -0.0001  -0.0042   0.0001  29.01    0.0
2137 423235.000   40.097022939 -105.147250970  1578.1919   2  13   0.0070    0.0144   0.0061  -0.0001  -0.0042   0.0001  29.01    0.0
2137 423236.000   40.097022971 -105.147250948  1578.1906   2  13   0.0070    0.0143   0.0060  -0.0001  -0.0042   0.0001  29.01    0.0
2137 423237.000   40.097022950 -105.147250963  1578.1883   2  13   0.0070    0.0142   0.0060  -0.0001  -0.0042   0.0001  29.01    0.0
2137 423238.000   40.097022949 -105.147250980  1578.1879   2  13   0.0070    0.0142   0.0060  -0.0001  -0.0041   0.0001  29.01    0.0
2137 423239.000   40.097022952 -105.147250967  1578.1851   2  13   0.0070    0.0141   0.0059  -0.0001  -0.0041   0.0001  29.01    0.0
2137 423240.000   40.097022910 -105.147250944  1578.1908   2  13   0.0069    0.0140   0.0059  -0.0001  -0.0041   0.0001  29.00    0.0
2137 423241.000   40.097022912 -105.147250960  1578.1902   2  13   0.0069    0.0139   0.0059  -0.0001  -0.0041   0.0001  29.00    0.0
2137 423242.000   40.097022908 -105.147250960  1578.1881   2  13   0.0069    0.0139   0.0058  -0.0001  -0.0040   0.0001  29.00    0.0
2137 423243.000   40.097022909 -105.147250957  1578.1885   2  13   0.0069    0.0138   0.0058  -0.0001  -0.0040   0.0001  29.00    0.0
2137 423244.000   40.097022889 -105.147250949  1578.1876   2  13   0.0069    0.0137   0.0058  -0.0001  -0.0040   0.0001  29.00    0.0
2137 423245.000   40.097022882 -105.147250946  1578.1951   2  13   0.0068    0.0137   0.0057  -0.0001  -0.0040   0.0001  29.00    0.0
2137 423246.000   40.097022877 -105.147250921  1578.1941   2  13   0.0068    0.0136   0.0057  -0.0001  -0.0039   0.0001  29.00    0.0
2137 423247.000   40.097022907 -105.147250933  1578.1949   2  13   0.0068    0.0135   0.0057  -0.0001  -0.0039   0.0001  29.00    0.0
2137 423248.000   40.097022887 -105.147250931  1578.1986   2  13   0.0068    0.0135   0.0056  -0.0001  -0.0039   0.0001  29.01    0.0
2137 423249.000   40.097022896 -105.147250915  1578.1994   2  13   0.0068    0.0134   0.0056  -0.0001  -0.0039   0.0001  29.01    0.0
2137 423250.000   40.097022935 -105.147250900  1578.1927   2  13   0.0067    0.0133   0.0056  -0.0001  -0.0038   0.0001  29.01    0.0
2137 423251.000   40.097022918 -105.147250888  1578.1989   2  13   0.0067    0.0133   0.0055  -0.0001  -0.0038   0.0001  29.01    0.0
2137 423252.000   40.097022899 -105.147250887  1578.1988   2  13   0.0067    0.0132   0.0055  -0.0001  -0.0038   0.0001  29.01    0.0
2137 423253.000   40.097022914 -105.147250890  1578.1963   2  13   0.0067    0.0131   0.0055  -0.0001  -0.0038   0.0001  29.01    0.0
2137 423254.000   40.097022920 -105.147250887  1578.1951   2  13   0.0067    0.0131   0.0055  -0.0001  -0.0037   0.0001  29.01    0.0
2137 423255.000   40.097022948 -105.147250861  1578.1923   2  13   0.0066    0.0130   0.0054  -0.0001  -0.0037   0.0001  29.01    0.0
2137 423256.000   40.097022930 -105.147250857  1578.2007   2  13   0.0066    0.0129   0.0054  -0.0001  -0.0037   0.0001  29.00    0.0
2137 423257.000   40.097022941 -105.147250859  1578.2003   2  13   0.0066    0.0129   0.0054  -0.0001  -0.0037   0.0001  29.00    0.0
2137 423258.000   40.097022967 -105.147250880  1578.1973   2  13   0.0066    0.0128   0.0053  -0.0001  -0.0037   0.0001  29.00    0.0
2137 423259.000   40.097022983 -105.147250899  1578.1949   2  13   0.0066    0.0127   0.0053  -0.0001  -0.0036   0.0001  29.00    0.0
2137 423260.000   40.097023005 -105.147250897  1578.1917   2  13   0.0066    0.0127   0.0053  -0.0001  -0.0036   0.0001  29.00    0.0
2137 423261.000   40.097023009 -105.147250879  1578.1939   2  13   0.0065    0.0126   0.0053  -0.0001  -0.0036   0.0001  29.00    0.0
2137 423262.000   40.097023047 -105.147250887  1578.1914   2  13   0.0065    0.0126   0.0052  -0.0001  -0.0036   0.0001  29.00    0.0
2137 423263.000   40.097023072 -105.147250905  1578.1876   2  13   0.0065    0.0125   0.0052  -0.0001  -0.0036   0.0001  29.00    0.0
2137 423264.000   40.097023067 -105.147250896  1578.1923   2  13   0.0065    0.0124   0.0052  -0.0001  -0.0035   0.0001  29.00    0.0
2137 423265.000   40.097023079 -105.147250923  1578.1924   2  13   0.0065    0.0124   0.0051  -0.0001  -0.0035   0.0001  29.00    0.0
2137 423266.000   40.097023109 -105.147250916  1578.1868   2  13   0.0064    0.0123   0.0051  -0.0001  -0.0035   0.0001  29.00    0.0
2137 423267.000   40.097023118 -105.147250932  1578.1878   2  13   0.0064    0.0123   0.0051  -0.0001  -0.0035   0.0001  29.00    0.0
2137 423268.000   40.097023126 -105.147250939  1578.1879   2  13   0.0064    0.0122   0.0051  -0.0001  -0.0035   0.0001  29.00    0.0
2137 423269.000   40.097023145 -105.147250946  1578.1886   2  13   0.0064    0.0122   0.0050  -0.0001  -0.0034   0.0001  29.00    0.0
2137 423270.000   40.097023149 -105.147250939  1578.1841   2  13   0.0064    0.0121   0.0050  -0.0001  -0.0034   0.0001  29.00    0.0
2137 423271.000   40.097023154 -105.147250950  1578.1824   2  13   0.0064    0.0120   0.0050  -0.0001  -0.0034   0.0001  29.00    0.0
2137 423272.000   40.097023161 -105.147250938  1578.1828   2  13   0.0063    0.0120   0.0050  -0.0001  -0.0034   0.0001  29.01    0.0
2137 423273.000   40.097023159 -105.147250934  1578.1808   2  13   0.0063    0.0119   0.0049  -0.0001  -0.0034   0.0001  29.01    0.0
2137 423274.000   40.097023163 -105.147250974  1578.1770   2  13   0.0063    0.0119   0.0049  -0.0002  -0.0033   0.0001  29.01    0.0
2137 423275.000   40.097023168 -105.147250941  1578.1826   2  13   0.0063    0.0118   0.0049  -0.0002  -0.0033   0.0001  29.01    0.0
2137 423276.000   40.097023201 -105.147250963  1578.1787   2  13   0.0063    0.0118   0.0049  -0.0002  -0.0033   0.0001  29.01    0.0
2137 423277.000   40.097023187 -105.147250966  1578.1824   2  13   0.0063    0.0117   0.0048  -0.0002  -0.0033   0.0001  29.01    0.0
2137 423278.000   40.097023210 -105.147250992  1578.1760   2  13   0.0062    0.0117   0.0048  -0.0002  -0.0033   0.0001  29.01    0.0
2137 423279.000   40.097023237 -105.147251005  1578.1819   2  13   0.0062    0.0116   0.0048  -0.0002  -0.0033   0.0001  29.01    0.0
2137 423280.000   40.097023239 -105.147251003  1578.1789   2  13   0.0062    0.0116   0.0048  -0.0002  -0.0032   0.0001  29.01    0.0
2137 423281.000   40.097023252 -105.147251024  1578.1826   2  13   0.0062    0.0115   0.0047  -0.0002  -0.0032   0.0001  29.01    0.0
2137 423282.000   40.097023273 -105.147251031  1578.1787   2  13   0.0062    0.0115   0.0047  -0.0002  -0.0032   0.0001  29.01    0.0
2137 423283.000   40.097023271 -105.147251057  1578.1772   2  13   0.0062    0.0114   0.0047  -0.0002  -0.0032   0.0001  29.01    0.0
2137 423284.000   40.097023249 -105.147251048  1578.1803   2  13   0.0061    0.0114   0.0047  -0.0002  -0.0032   0.0001  29.01    0.0
2137 423285.000   40.097023260 -105.147251059  1578.1737   2  13   0.0061    0.0113   0.0046  -0.0002  -0.0032   0.0001  29.01    0.0
2137 423286.000   40.097023271 -105.147251047  1578.1728   2  13   0.0061    0.0113   0.0046  -0.0002  -0.0031   0.0001  29.01    0.0
2137 423287.000   40.097023272 -105.147251034  1578.1707   2  13   0.0061    0.0112   0.0046  -0.0002  -0.0031   0.0001  29.01    0.0
2137 423288.000   40.097023263 -105.147251059  1578.1720   2  13   0.0061    0.0112   0.0046  -0.0002  -0.0031   0.0001  29.01    0.0
2137 423289.000   40.097023295 -105.147251061  1578.1706   2  13   0.0061    0.0111   0.0046  -0.0002  -0.0031   0.0001  29.01    0.0
2137 423290.000   40.097023302 -105.147251083  1578.1673   2  13   0.0061    0.0111   0.0045  -0.0002  -0.0031   0.0001  29.01    0.0
2137 423291.000   40.097023302 -105.147251085  1578.1683   2  13   0.0060    0.0110   0.0045  -0.0002  -0.0031   0.0001  29.01    0.0
2137 423292.000   40.097023345 -105.147251092  1578.1648   2  13   0.0060    0.0110   0.0045  -0.0002  -0.0030   0.0001  29.01    0.0
2137 423293.000   40.097023337 -105.147251102  1578.1653   2  13   0.0060    0.0109   0.0045  -0.0002  -0.0030   0.0001  29.01    0.0
2137 423294.000   40.097023361 -105.147251100  1578.1640   2  13   0.0060    0.0109   0.0044  -0.0002  -0.0030   0.0001  29.01    0.0
2137 423295.000   40.097023386 -105.147251081  1578.1632   2  13   0.0060    0.0108   0.0044  -0.0002  -0.0030   0.0001  29.01    0.0
2137 423296.000   40.097023399 -105.147251139  1578.1590   2  13   0.0060    0.0108   0.0044  -0.0002  -0.0030   0.0001  29.01    0.0
2137 423297.000   40.097023401 -105.147251134  1578.1582   2  13   0.0059    0.0107   0.0044  -0.0002  -0.0030   0.0001  29.01    0.0
2137 423298.000   40.097023413 -105.147251137  1578.1604   2  13   0.0059    0.0107   0.0044  -0.0002  -0.0030   0.0001  29.01    0.0
2137 423299.000   40.097023426 -105.147251168  1578.1562   2  13   0.0059    0.0107   0.0043  -0.0002  -0.0029   0.0001  29.01    0.0
2137 423300.000   40.097023443 -105.147251155  1578.1544   2  13   0.0059    0.0106   0.0043  -0.0002  -0.0029   0.0001  29.00    0.0
2137 423301.000   40.097023442 -105.147251173  1578.1523   2  13   0.0059    0.0106   0.0043  -0.0002  -0.0029   0.0001  29.00    0.0
2137 423302.000   40.097023439 -105.147251182  1578.1514   2  13   0.0059    0.0105   0.0043  -0.0002  -0.0029   0.0001  29.00    0.0
2137 423303.000   40.097023447 -105.147251183  1578.1503   2  13   0.0059    0.0105   0.0043  -0.0002  -0.0029   0.0001  29.00    0.0
2137 423304.000   40.097023464 -105.147251195  1578.1433   2  13   0.0058    0.0104   0.0042  -0.0002  -0.0029   0.0001  29.00    0.0
2137 423305.000   40.097023427 -105.147251196  1578.1461   2  13   0.0058    0.0104   0.0042  -0.0002  -0.0029   0.0001  29.00    0.0
2137 423306.000   40.097023425 -105.147251186  1578.1432   2  13   0.0058    0.0104   0.0042  -0.0002  -0.0028   0.0001  29.00    0.0
2137 423307.000   40.097023424 -105.147251180  1578.1378   2  13   0.0058    0.0103   0.0042  -0.0002  -0.0028   0.0001  29.00    0.0
2137 423308.000   40.097023401 -105.147251208  1578.1349   2  13   0.0058    0.0103   0.0042  -0.0002  -0.0028   0.0001  29.01    0.0
2137 423309.000   40.097023388 -105.147251179  1578.1362   2  13   0.0058    0.0102   0.0041  -0.0002  -0.0028   0.0001  29.01    0.0
2137 423310.000   40.097023384 -105.147251197  1578.1329   2  13   0.0058    0.0102   0.0041  -0.0002  -0.0028   0.0001  29.01    0.0
2137 423311.000   40.097023387 -105.147251169  1578.1325   2  13   0.0057    0.0101   0.0041  -0.0002  -0.0028   0.0001  29.01    0.0
2137 423312.000   40.097023348 -105.147251186  1578.1342   2  13   0.0057    0.0101   0.0041  -0.0002  -0.0028   0.0001  29.01    0.0
2137 423313.000   40.097023353 -105.147251167  1578.1316   2  13   0.0057    0.0101   0.0041  -0.0002  -0.0028   0.0001  29.01    0.0
2137 423314.000   40.097023355 -105.147251170  1578.1334   2  13   0.0057    0.0100   0.0041  -0.0002  -0.0027   0.0001  29.01    0.0
2137 423315.000   40.097023361 -105.147251172  1578.1322   2  13   0.0057    0.0100   0.0040  -0.0002  -0.0027   0.0001  29.01    0.0
2137 423316.000   40.097023337 -105.147251188  1578.1360   2  13   0.0057    0.0099   0.0040  -0.0002  -0.0027   0.0001  29.00    0.0
2137 423317.000   40.097023328 -105.147251155  1578.1401   2  13   0.0057    0.0099   0.0040  -0.0002  -0.0027   0.0001  29.00    0.0
2137 423318.000   40.097023338 -105.147251147  1578.1350   2  13   0.0057    0.0099   0.0040  -0.0002  -0.0027   0.0001  29.00    0.0
2137 423319.000   40.097023321 -105.147251127  1578.1383   2  13   0.0056    0.0098   0.0040  -0.0002  -0.0027   0.0001  29.00    0.0
2137 423320.000   40.097023303 -105.147251132  1578.1392   2  13   0.0056    0.0098   0.0039  -0.0002  -0.0027   0.0001  29.00    0.0
2137 423321.000   40.097023294 -105.147251107  1578.1404   2  13   0.0056    0.0098   0.0039  -0.0002  -0.0027   0.0001  29.00    0.0
2137 423322.000   40.097023302 -105.147251108  1578.1373   2  13   0.0056    0.0097   0.0039  -0.0002  -0.0026   0.0001  29.00    0.0
2137 423323.000   40.097023277 -105.147251110  1578.1371   2  13   0.0056    0.0097   0.0039  -0.0002  -0.0026   0.0001  29.00    0.0
2137 423324.000   40.097023264 -105.147251094  1578.1409   2  13   0.0056    0.0096   0.0039  -0.0002  -0.0026   0.0001  29.00    0.0
2137 423325.000   40.097023279 -105.147251065  1578.1406   2  13   0.0056    0.0096   0.0039  -0.0002  -0.0026   0.0001  29.00    0.0
2137 423326.000   40.097023272 -105.147251087  1578.1413   2  13   0.0055    0.0096   0.0038  -0.0002  -0.0026   0.0001  29.00    0.0
2137 423327.000   40.097023264 -105.147251096  1578.1419   2  13   0.0055    0.0095   0.0038  -0.0002  -0.0026   0.0001  29.00    0.0
2137 423328.000   40.097023285 -105.147251046  1578.1431   2  13   0.0055    0.0095   0.0038  -0.0002  -0.0026   0.0001  29.00    0.0
2137 423329.000   40.097023295 -105.147251046  1578.1427   2  13   0.0055    0.0095   0.0038  -0.0002  -0.0026   0.0001  29.00    0.0
2137 423330.000   40.097023281 -105.147251053  1578.1439   2  13   0.0055    0.0094   0.0038  -0.0002  -0.0026   0.0001  29.00    0.0
2137 423331.000   40.097023295 -105.147251025  1578.1417   2  13   0.0055    0.0094   0.0038  -0.0002  -0.0025   0.0001  29.00    0.0
2137 423332.000   40.097023287 -105.147251025  1578.1413   2  13   0.0055    0.0094   0.0037  -0.0002  -0.0025   0.0001  29.01    0.0
2137 423333.000   40.097023283 -105.147251024  1578.1420   2  13   0.0055    0.0093   0.0037  -0.0002  -0.0025   0.0001  29.01    0.0
2137 423334.000   40.097023314 -105.147251012  1578.1379   2  13   0.0054    0.0093   0.0037  -0.0002  -0.0025   0.0001  29.01    0.0
2137 423335.000   40.097023330 -105.147250985  1578.1375   2  13   0.0054    0.0093   0.0037  -0.0002  -0.0025   0.0001  29.01    0.0
2137 423336.000   40.097023327 -105.147250985  1578.1375   2  13   0.0054    0.0092   0.0037  -0.0002  -0.0025   0.0001  29.01    0.0
2137 423337.000   40.097023358 -105.147250987  1578.1378   2  13   0.0054    0.0092   0.0037  -0.0002  -0.0025   0.0001  29.01    0.0
2137 423338.000   40.097023349 -105.147250944  1578.1361   2  13   0.0054    0.0092   0.0037  -0.0002  -0.0025   0.0001  29.01    0.0
2137 423339.000   40.097023372 -105.147250950  1578.1328   2  13   0.0054    0.0091   0.0036  -0.0002  -0.0025   0.0001  29.01    0.0
2137 423340.000   40.097023374 -105.147250952  1578.1328   2  13   0.0054    0.0091   0.0036  -0.0002  -0.0025   0.0001  29.01    0.0
2137 423341.000   40.097023408 -105.147250935  1578.1341   2  13   0.0054    0.0091   0.0036  -0.0002  -0.0024   0.0001  29.01    0.0
2137 423342.000   40.097023412 -105.147250940  1578.1305   2  13   0.0053    0.0090   0.0036  -0.0002  -0.0024   0.0001  29.01    0.0
2137 423343.000   40.097023450 -105.147250947  1578.1315   2  13   0.0053    0.0090   0.0036  -0.0002  -0.0024   0.0001  29.01    0.0
2137 423344.000   40.097023475 -105.147250963  1578.1248   2  13   0.0053    0.0090   0.0036  -0.0002  -0.0024   0.0001  29.01    0.0
2137 423345.000   40.097023496 -105.147250935  1578.1226   2  13   0.0053    0.0089   0.0035  -0.0002  -0.0024   0.0001  29.01    0.0
2137 423346.000   40.097023507 -105.147250925  1578.1196   2  13   0.0053    0.0089   0.0035  -0.0002  -0.0024   0.0001  29.01    0.0
2137 423347.000   40.097023516 -105.147250938  1578.1237   2  13   0.0053    0.0089   0.0035  -0.0002  -0.0024   0.0001  29.01    0.0
2137 423348.000   40.097023536 -105.147250932  1578.1206   2  13   0.0053    0.0088   0.0035  -0.0002  -0.0024   0.0001  29.01    0.0
2137 423349.000   40.097023567 -105.147250937  1578.1110   2  13   0.0053    0.0088   0.0035  -0.0002  -0.0024   0.0001  29.01    0.0
2137 423350.000   40.097023587 -105.147250941  1578.1142   2  13   0.0053    0.0088   0.0035  -0.0002  -0.0024   0.0001  29.01    0.0
2137 423351.000   40.097023608 -105.147250933  1578.1115   2  13   0.0052    0.0087   0.0035  -0.0002  -0.0023   0.0001  29.01    0.0
2137 423352.000   40.097023638 -105.147250933  1578.1093   2  13   0.0052    0.0087   0.0035  -0.0002  -0.0023   0.0001  29.01    0.0
2137 423353.000   40.097023648 -105.147250949  1578.1096   2  13   0.0052    0.0087   0.0034  -0.0002  -0.0023   0.0001  29.01    0.0
2137 423354.000   40.097023661 -105.147250944  1578.1066   2  13   0.0052    0.0087   0.0034  -0.0002  -0.0023   0.0001  29.01    0.0
2137 423355.000   40.097023664 -105.147250956  1578.1031   2  13   0.0052    0.0086   0.0034  -0.0002  -0.0023   0.0001  29.01    0.0
2137 423356.000   40.097023694 -105.147250951  1578.0977   2  13   0.0052    0.0086   0.0034  -0.0002  -0.0023   0.0001  29.01    0.0
2137 423357.000   40.097023692 -105.147250958  1578.0958   2  13   0.0052    0.0086   0.0034  -0.0002  -0.0023   0.0001  29.01    0.0
2137 423358.000   40.097023724 -105.147250979  1578.0870   2  13   0.0052    0.0085   0.0034  -0.0002  -0.0023   0.0001  29.01    0.0
2137 423359.000   40.097023709 -105.147250963  1578.0888   2  13   0.0052    0.0085   0.0034  -0.0002  -0.0023   0.0001  29.01    0.0
2137 423360.000   40.097023723 -105.147250985  1578.0871   2  13   0.0051    0.0085   0.0033  -0.0002  -0.0023   0.0001  29.00    0.0
2137 423361.000   40.097023729 -105.147250974  1578.0891   2  13   0.0051    0.0085   0.0033  -0.0002  -0.0023   0.0001  29.00    0.0
2137 423362.000   40.097023753 -105.147250968  1578.0803   2  13   0.0051    0.0084   0.0033  -0.0002  -0.0023   0.0001  29.00    0.0
2137 423363.000   40.097023743 -105.147250974  1578.0849   2  13   0.0051    0.0084   0.0033  -0.0002  -0.0022   0.0001  29.00    0.0
2137 423364.000   40.097023729 -105.147250979  1578.0835   2  13   0.0051    0.0084   0.0033  -0.0002  -0.0022   0.0001  29.00    0.0
2137 423365.000   40.097023757 -105.147250972  1578.0791   2  13   0.0051    0.0083   0.0033  -0.0002  -0.0022   0.0001  29.00    0.0
2137 423366.000   40.097023739 -105.147250963  1578.0802   2  13   0.0051    0.0083   0.0033  -0.0002  -0.0022   0.0001  29.00    0.0
2137 423367.000   40.097023742 -105.147250988  1578.0823   2  13   0.0051    0.0083   0.0033  -0.0002  -0.0022   0.0001  29.00    0.0
