%  GPST          latitude(deg) longitude(deg)  height(m)   Q  ns   sdn(m)   sde(m)   sdu(m)  sdne(m)  sdeu(m)  sdun(m) age(s)  ratio
2137 422922.000   40.097024946 -105.147249402  1578.7073   2  11   1.8441    7.1280   3.4542   0.5325  -2.9836  -0.3379  28.01    0.0
2137 422923.000   40.097024655 -105.147249897  1578.7096   2  11   0.9787    3.8221   1.8877   0.2713  -1.6337  -0.1558  29.01    0.0
2137 422924.000   40.097024405 -105.147249762  1578.7269   2  11   0.6664    2.6121   1.2993   0.1816  -1.1250  -0.1000  29.01    0.0
2137 422925.000   40.097024065 -105.147249391  1578.7398   2  11   0.5053    1.9843   0.9906   0.1363  -0.8580  -0.0735  29.01    0.0
2137 422926.000   40.097024040 -105.147249228  1578.7415   2  11   0.4070    1.6000   0.8006   0.1091  -0.6934  -0.0580  29.01    0.0
2137 422927.000   40.097024004 -105.147248970  1578.7555   2  11   0.3408    1.3405   0.6717   0.0909  -0.5818  -0.0478  29.01    0.0
2137 422928.000   40.097024009 -105.147248798  1578.7887   2  11   0.2932    1.1535   0.5786   0.0779  -0.5011  -0.0407  29.01    0.0
2137 422929.000   40.097023917 -105.147248617  1578.8202   2  11   0.2572    1.0123   0.5082   0.0681  -0.4401  -0.0354  29.01    0.0
2137 422930.000   40.097023824 -105.147248257  1578.8514   2  11   0.2292    0.9019   0.4530   0.0605  -0.3923  -0.0314  29.01    0.0
2137 422931.000   40.097023750 -105.147247979  1578.8781   2  11   0.2066    0.8133   0.4087   0.0544  -0.3538  -0.0281  29.01    0.0
2137 422932.000   40.097023686 -105.147247773  1578.9016   2  11   0.1882    0.7405   0.3722   0.0494  -0.3222  -0.0255  29.01    0.0
2137 422933.000   40.097023614 -105.147247533  1578.9085   2  11   0.1727    0.6796   0.3417   0.0452  -0.2958  -0.0233  29.01    0.0
2137 422934.000   40.097023532 -105.147247389  1578.9117   2  11   0.1596    0.6280   0.3159   0.0417  -0.2733  -0.0215  29.01    0.0
2137 422935.000   40.097023425 -105.147247339  1578.9110   2  11   0.1484    0.5837   0.2936   0.0387  -0.2540  -0.0199  29.01    0.0
2137 422936.000   40.097023297 -105.147247299  1578.9209   2  11   0.1387    0.5452   0.2743   0.0361  -0.2373  -0.0185  29.01    0.0
2137 422937.000   40.097023138 -105.147247291  1578.9285   2  11   0.1301    0.5114   0.2573   0.0338  -0.2225  -0.0174  29.01    0.0
2137 422938.000   40.097023013 -105.147247249  1578.9213   2  11   0.1226    0.4816   0.2423   0.0317  -0.2095  -0.0163  29.01    0.0
2137 422939.000   40.097022905 -105.147247165  1578.9176   2  11   0.1159    0.4550   0.2290   0.0299  -0.1979  -0.0154  29.01    0.0
2137 422940.000   40.097022716 -105.147247032  1578.9171   2  11   0.1099    0.4312   0.2170   0.0283  -0.1875  -0.0146  29.00    0.0
2137 422941.000   40.097022567 -105.147246979  1578.9136   2  11   0.1045    0.4098   0.2062   0.0269  -0.1782  -0.0138  29.00    0.0
2137 422942.000   40.097022423 -105.147246857  1578.9131   2  11   0.0996    0.3903   0.1964   0.0255  -0.1697  -0.0131  29.00    0.0
2137 422943.000   40.097022266 -105.147246781  1578.9235   2  11   0.0951    0.3727   0.1875   0.0243  -0.1619  -0.0125  29.00    0.0
2137 422944.000   40.097022058 -105.147246648  1578.9248   2  11   0.0910    0.3565   0.1794   0.0232  -0.1549  -0.0120  29.00    0.0
2137 422945.000   40.097021907 -105.147246527  1578.9216   2  11   0.0873    0.3416   0.1719   0.0222  -0.1484  -0.0114  29.00    0.0
2137 422946.000   40.097021720 -105.147246430  1578.9220   2  11   0.0838    0.3280   0.1650   0.0213  -0.1424  -0.0110  29.00    0.0
2137 422947.000   40.097021570 -105.147246396  1578.9230   2  11   0.0807    0.3153   0.1587   0.0205  -0.1368  -0.0105  29.00    0.0
2137 422948.000   40.097021417 -105.147246287  1578.9260   2  11   0.0777    0.3036   0.1528   0.0197  -0.1317  -0.0101  29.01    0.0
2137 422949.000   40.097021294 -105.147246184  1578.9294   2  11   0.0750    0.2927   0.1473   0.0189  -0.1269  -0.0098  29.01    0.0
2137 422950.000   40.097021174 -105.147246066  1578.9380   2  11   0.0725    0.2826   0.1422   0.0182  -0.1225  -0.0094  29.01    0.0
2137 422951.000   40.097021084 -105.147246005  1578.9372   2  11   0.0701    0.2731   0.1374   0.0176  -0.1183  -0.0091  29.01    0.0
2137 422952.000   40.097020992 -105.147245929  1578.9426   2  11   0.0679    0.2642   0.1329   0.0170  -0.1144  -0.0088  29.01    0.0
2137 422953.000   40.097020866 -105.147245872  1578.9443   2  11   0.0658    0.2559   0.1287   0.0164  -0.1108  -0.0085  29.01    0.0
2137 422954.000   40.097020744 -105.147245849  1578.9520   2  11   0.0638    0.2480   0.1248   0.0159  -0.1073  -0.0082  29.01    0.0
2137 422955.000   40.097020657 -105.147245836  1578.9574   2  11   0.0620    0.2406   0.1210   0.0154  -0.1041  -0.0080  29.01    0.0
2137 422956.000   40.097020556 -105.147245798  1578.9707   2  11   0.0602    0.2337   0.1175   0.0149  -0.1010  -0.0077  29.00    0.0
2137 422957.000   40.097020507 -105.147245838  1578.9695   2  11   0.0586    0.2271   0.1142   0.0145  -0.0981  -0.0075  29.00    0.0
2137 422958.000   40.097020459 -105.147245833  1578.9619   2  11   0.0570    0.2208   0.1110   0.0140  -0.0953  -0.0073  29.00    0.0
2137 422959.000   40.097020422 -105.147245827  1578.9553   2  11   0.0556    0.2149   0.1080   0.0136  -0.0927  -0.0071  29.00    0.0
2137 422960.000   40.097020378 -105.147245819  1578.9445   2  11   0.0542    0.2093   0.1052   0.0133  -0.0902  -0.0069  29.00    0.0
2137 422961.000   40.097020358 -105.147245848  1578.9353   2  11   0.0528    0.2039   0.1025   0.0129  -0.0879  -0.0067  29.00    0.0
2137 422962.000   40.097020336 -105.147245845  1578.9291   2  11   0.0516    0.1988   0.0999   0.0125  -0.0856  -0.0065  29.00    0.0
2137 422963.000   40.097020316 -105.147245905  1578.9183   2  11   0.0504    0.1940   0.0975   0.0122  -0.0835  -0.0064  29.00    0.0
2137 422964.000   40.097020300 -105.147245936  1578.9063   2  11   0.0492    0.1893   0.0951   0.0119  -0.0814  -0.0062  29.00    0.0
2137 422965.000   40.097020289 -105.147245978  1578.8926   2  11   0.0481    0.1849   0.0929   0.0116  -0.0795  -0.0060  29.00    0.0
2137 422966.000   40.097020310 -105.147246035  1578.8794   2  11   0.0471    0.1807   0.0908   0.0113  -0.0776  -0.0059  29.00    0.0
2137 422967.000   40.097020323 -105.147246095  1578.8696   2  11   0.0461    0.1766   0.0887   0.0110  -0.0758  -0.0058  29.00    0.0
2137 422968.000   40.097020372 -105.147246196  1578.8601   2  11   0.0451    0.1727   0.0867   0.0108  -0.0741  -0.0056  29.00    0.0
2137 422969.000   40.097020389 -105.147246249  1578.8479   2  11   0.0442    0.1690   0.0849   0.0105  -0.0724  -0.0055  29.00    0.0
2137 422970.000   40.097020418 -105.147246296  1578.8442   2  11   0.0433    0.1654   0.0830   0.0103  -0.0709  -0.0054  29.00    0.0
2137 422971.000   40.097020446 -105.147246380  1578.8362   2  11   0.0425    0.1619   0.0813   0.0100  -0.0693  -0.0052  29.00    0.0
2137 422972.000   40.097020509 -105.147246450  1578.8282   2  11   0.0416    0.1586   0.0796   0.0098  -0.0679  -0.0051  29.01    0.0
2137 422973.000   40.097020535 -105.147246541  1578.8257   2  11   0.0409    0.1554   0.0780   0.0096  -0.0664  -0.0050  29.01    0.0
2137 422974.000   40.097020564 -105.147246613  1578.8231   2  11   0.0401    0.1523   0.0764   0.0094  -0.0651  -0.0049  29.01    0.0
2137 422975.000   40.097020616 -105.147246682  1578.8189   2  11   0.0394    0.1494   0.0749   0.0092  -0.0638  -0.0048  29.01    0.0
2137 422976.000   40.097020638 -105.147246732  1578.8167   2  11   0.0387    0.1465   0.0735   0.0090  -0.0625  -0.0047  29.01    0.0
2137 422977.000   40.097020684 -105.147246821  1578.8094   2  11   0.0380    0.1437   0.0721   0.0088  -0.0613  -0.0046  29.01    0.0
2137 422978.000   40.097020715 -105.147246891  1578.8071   2  11   0.0373    0.1411   0.0708   0.0086  -0.0601  -0.0045  29.01    0.0
2137 422979.000   40.097020730 -105.147246952  1578.7999   2  11   0.0367    0.1385   0.0694   0.0084  -0.0589  -0.0044  29.01    0.0
2137 422980.000   40.097020778 -105.147247051  1578.7902   2  11   0.0361    0.1360   0.0682   0.0082  -0.0578  -0.0044  29.01    0.0
2137 422981.000   40.097020840 -105.147247121  1578.7789   2  11   0.0355    0.1336   0.0670   0.0081  -0.0567  -0.0043  29.01    0.0
2137 422982.000   40.097020869 -105.147247180  1578.7680   2  11   0.0350    0.1312   0.0658   0.0079  -0.0557  -0.0042  29.01    0.0
2137 422983.000   40.097020907 -105.147247260  1578.7568   2  11   0.0344    0.1290   0.0646   0.0077  -0.0547  -0.0041  29.01    0.0
2137 422984.000   40.097020941 -105.147247298  1578.7477   2  11   0.0339    0.1268   0.0635   0.0076  -0.0537  -0.0040  29.01    0.0
