     3.03           OBSERVATION DATA    M: Mixed            RINEX VERSION / TYPE
RTKCONV demo5 b34e                      20211223 201955 UTC PGM / RUN BY / DATE 
format: RINEX                                               COMMENT             
log: C:\gps\data\cellphone\Google\train\2020-05-14-US-MTV-1\COMMENT             
SLAC                                                        MARKER NAME         
49523S001                                                   MARKER NUMBER       
                                                            MARKER TYPE         
                                                            OBSERVER / AGENCY   
5302K56635          TRIMBLE NETR9       5.42                REC # / TYPE / VERS 
0220369855          TRM59800.80     NONE                    ANT # / TYPE        
 -2703115.2660 -4291768.3440  3854247.9550                  APPROX POSITION XYZ 
        0.0000        0.0000        0.0000                  ANTENNA: DELTA H/E/N
G    6 C1C L1C S1C C5X L5X S5X                              SYS / # / OBS TYPES 
R    4 C1C L1C S1C C1P                                      SYS / # / OBS TYPES 
E    6 C1X L1X S1X C5X L5X S5X                              SYS / # / OBS TYPES 
  2020    05    14    22    00   00.0000000     GPS         TIME OF FIRST OBS   
  2020    05    14    23    00   00.0000000     GPS         TIME OF LAST OBS    
G L1C                                                       SYS / PHASE SHIFT   
G L5X  0.00000                                              SYS / PHASE SHIFT   
R L1C                                                       SYS / PHASE SHIFT   
E L1X  0.00000                                              SYS / PHASE SHIFT   
E L5X  0.00000                                              SYS / PHASE SHIFT   
  0                                                         GLONASS SLOT / FRQ #
 C1C    0.000 C1P    0.000 C2C    0.000 C2P    0.000        GLONASS COD/PHS/BIS 
                                                            END OF HEADER       
> 2020 05 14 22 00 00.0000000  0 23                     
R11  22231781.313 1 118799905.93317        43.100    22231781.355 1
G12  20199070.203 1 106146864.44618        52.000                                                  
G02  20908909.656 1 109877144.46018        50.900                                                  
R06  23728952.695 1 126622195.19915        33.300    23728949.629 1
R07  24349631.930 1 130345511.41615        31.500                  
R12  19351963.133 1 103374720.65018        51.800    19351962.934 1
R21  23559321.797 1 126070726.26516        38.800    23559320.813 1
G05  23452576.953 1 123244149.62717        42.300                                                  
R22  19911199.000 1 106287240.61118        50.500    19911197.727 1
R23  20924499.234 1 111931975.48718        48.000    20924498.609 1
G06  21994470.328 1 115581700.79617        47.600    21994480.176 1  86311126.34418        51.100  
G17  25651906.445 1 134801701.76816        36.900                                                  
R24  24181493.469 1 129309153.38715        35.300    24181492.742 1
G19  23778916.250 1 124959034.48216        38.600                                                  
G24  22809760.086 1 119866216.82317        43.700    22809770.176 1  89510474.04818        48.800  
R13  20777836.734 1 110952325.04315        34.700    20777835.477 1
G25  21610920.867 1 113566107.29017        47.600    21610931.695 1  84805978.49718        50.800  
G29  23674828.297 1 124412088.19516        41.300                                                  
E13  23391252.320 1 122921913.13818        49.500    23391256.422 1  91792386.17718        52.700  
E01  25593398.000 1 134494231.38218        48.400    25593402.438 1 100434023.71617        47.700  
E21  23440529.961 1 123180876.86118        53.700    23440534.898 1  91985769.07018        52.700  
E27  25598252.039 1 134519731.86717        46.800    25598258.410 1 100453072.63218        48.500  
E15  26678511.125 1 140196560.58116        41.100    26678518.121 1 104692281.94717        44.800  
> 2020 05 14 22 00 30.0000000  0 23                     
R11  22255259.031 1 118925364.121 7        42.000    22255258.809 1
G12  20194313.703 1 106121866.718 8        51.100                                                  
G02  20913990.797 1 109903845.310 8        51.500                                                  
R06  23721639.523 1 126583179.044 5        33.700    23721638.777 1
R07  24332035.688 1 130251331.82415        32.000                  
R12  19359502.719 1 103414994.504 8        51.800    19359502.285 1
R21  23578816.211 1 126175036.403 6        40.900    23578814.805 1
G05  23434375.547 1 123148504.533 7        42.900                                                  
R22  19921286.234 1 106341089.410 8        49.500    19921285.113 1
R23  20913032.781 1 111870633.069 8        48.200    20913031.320 1
G06  22009196.398 1 115659092.319 7        46.700    22009206.895 1  86368918.690 8        51.100  
G17  25665857.477 1 134875017.083 5        35.500                                                  
R24  24163156.484 1 129211115.223 5        35.800    24163158.883 1
G19  23795026.648 1 125043697.295 6        37.800                                                  
G24  22826165.438 1 119952429.541 7        42.500    22826176.117 1  89574853.623 8        48.900  
R13  20761960.141 1 110867544.956 5        34.200    20761958.703 1
G25  21596743.547 1 113491603.345 7        47.800    21596753.703 1  84750342.469 8        50.500  
G29  23660893.984 1 124338858.609 7        42.300                                                  
E13  23396814.953 1 122951144.837 8        50.000    23396819.211 1  91814215.046 8        52.600  
E01  25580838.484 1 134428230.211 8        48.300    25580842.664 1 100384737.161 7        47.100  
E21  23442040.445 1 123188813.555 8        52.900    23442045.156 1  91991695.808 8        52.800  
E27  25612771.688 1 134596034.621 7        46.700    25612778.234 1 100510051.924 7        47.700  
E15  26693252.258 1 140274032.710 6        39.700    26693260.367 1 104750134.479 7        44.900  
> 2020 05 14 22 01 00.0000000  0 22                     
R11  22278787.453 1 119051098.068 7        42.500    22278787.910 1
G12  20189639.000 1 106097301.626 8        52.000                                                  
G02  20919149.727 1 109930956.742 8        51.600                                                  
R06  23714439.031 1 126544763.224 5        33.200    23714439.188 1
R12  19367184.102 1 103456027.467 8        50.600    19367183.609 1
R21  23598295.102 1 126279272.077 6        41.600    23598293.754 1
G05  23416201.945 1 123052989.341 7        42.400                                                  
R22  19931435.242 1 106395259.773 8        50.200    19931433.781 1
R23  20901640.539 1 111809692.624 8        48.100    20901639.258 1
G06  22023984.625 1 115736804.709 7        46.700    22023995.352 1  86426950.654 8        51.100  
G17  25679801.852 1 134948299.278 6        36.800                                                  
R24  24144861.797 1 129113271.95215        31.100    24144860.703 1
G19  23811141.742 1 125128389.609 6        37.800                                                  
G24  22842615.172 1 120038872.064 7        43.100    22842626.008 1  89639404.810 8        49.200  
R13  20746188.742 1 110783319.955 5        34.800    20746186.078 1
G25  21582618.477 1 113417380.773 7        47.300    21582629.227 1  84694916.554 8        50.200  
G29  23646980.805 1 124265739.752 7        43.800                                                  
E13  23402425.070 1 122980624.859 8        49.300    23402428.965 1  91836229.353 8        52.600  
E01  25568315.953 1 134362423.637 7        47.900    25568320.152 1 100335595.896 7        47.800  
E21  23443621.750 1 123197124.018 8        52.800    23443626.652 1  91997901.678 8        52.700  
E27  25627332.633 1 134672550.330 7        46.700    25627338.598 1 100567190.250 8        48.400  
E15  26707998.547 1 140351518.340 6        40.700    26708006.203 1 104807997.054 7        44.900  
> 2020 05 14 22 01 30.0000000  0 23                     
R11  22302367.555 1 119177103.981 6        41.000    22302367.145 1
G12  20185046.492 1 106073170.308 8        52.400                                                  
G02  20924386.625 1 109958476.666 8        50.300                                                  
R06  23707356.891 1 126506949.884 5        32.200    23707353.418 1
R07  24296926.375 1 130063373.77415        32.800                  
R12  19375006.813 1 103497817.935 8        51.300    19375006.789 1
R21  23617757.641 1 126383431.603 6        41.100    23617757.352 1
G05  23398049.102 1 122957607.618 6        41.700                                                  
R22  19941642.984 1 106449748.568 8        50.100    19941641.137 1
R23  20890322.266 1 111749153.700 8        48.100    20890321.523 1
G06  22038833.203 1 115814835.034 7        47.000    22038844.555 1  86485220.040 8        51.500  
G17  25693740.438 1 135021547.814 6        36.000                                                  
R24  24126599.992 1 129015624.142 5        33.700    24126599.477 1
G19  23827263.758 1 125213110.235 6        37.800                                                  
G24  22859106.727 1 120125541.619 7        42.300    22859119.070 1  89704125.528 8        49.300  
R13  20730517.164 1 110699653.787 5        35.400    20730518.152 1
G25  21568548.281 1 113343441.397 8        48.100    21568558.941 1  84639702.103 8        50.200  
G29  23633087.609 1 124192730.941 7        44.500                                                  
E13  23408081.602 1 123010351.515 8        49.800    23408085.738 1  91858427.824 8        52.700  
E01  25555830.398 1 134296812.894 8        48.600    25555834.844 1 100286600.879 7        47.500  
E21  23445274.594 1 123205808.376 8        53.300    23445279.289 1  92004386.735 8        52.700  
E27  25641932.969 1 134749277.703 7        46.400    25641939.531 1 100624486.613 8        48.000  
E15  26722746.500 1 140429015.893 6        41.300    26722753.375 1 104865868.622 7        44.600  
> 2020 05 14 22 02 00.0000000  0 23                     
R11  22325999.039 1 119303378.673 7        42.700    22325998.957 1
G12  20180537.719 1 106049474.421 8        52.100                                                  
G02  20929700.625 1 109986403.717 8        50.000                                                  
R06  23700378.805 1 126469742.569 5        30.800    23700380.066 1
R07  24279410.805 1 129969575.260 5        32.200    24279409.270 1
R12  19382972.141 1 103540365.114 8        51.400    19382971.930 1
R21  23637209.273 1 126487513.748 6        39.000    23637207.918 1
G05  23379922.969 1 122862362.757 6        40.800                                                  
R22  19951908.516 1 106504552.993 8        49.400    19951907.277 1
R23  20879081.898 1 111689016.420 8        48.600    20879080.297 1
G06  22053742.227 1 115893181.000 7        47.500    22053753.344 1  86543725.127 8        51.400  
G17  25707672.672 1 135094763.274 5        35.700                                                  
R24  24108380.844 1 128918173.074 6        36.000    24108378.816 1
G19  23843392.813 1 125297858.716 6        38.700                                                  
G24  22875643.477 1 120212435.574 7        42.500    22875653.730 1  89769013.826 8        49.300  
R13  20714958.664 1 110616551.056 6        36.000    20714956.367 1
G25  21554533.148 1 113269787.729 7        47.500    21554543.418 1  84584701.010 8        50.200  
G29  23619213.875 1 124119832.365 7        42.200                                                  
E13  23413784.984 1 123040323.781 8        50.100    23413789.457 1  91880809.708 8        52.900  
E01  25543382.625 1 134231399.864 8        48.600    25543387.191 1 100237753.512 8        48.000  
E21  23446998.320 1 123214867.326 8        53.700    23447002.945 1  92011151.527 8        52.600  
E27  25656574.438 1 134826215.911 7        47.200    25656580.465 1 100681940.426 7        47.400  
E15  26737494.898 1 140506524.601 6        40.000    26737501.723 1 104923748.485 7        43.800  
> 2020 05 14 22 02 30.0000000  0 23                     
R11  22349679.961 1 119429918.908 7        42.600    22349679.551 1
G12  20176111.563 1 106026216.206 8        50.100                                                  
G02  20935091.977 1 110014736.656 8        49.600                                                  
R06  23693521.156 1 126433143.183 5        32.800    23693520.625 1
R07  24261923.445 1 129875959.521 5        30.400    24261921.137 1
R12  19391078.508 1 103583668.254 8        50.300    19391078.367 1
R21  23656646.320 1 126591517.315 6        40.000    23656644.422 1
G05  23361827.922 1 122767257.599 7        42.100                                                  
R22  19962234.078 1 106559670.937 8        49.200    19962232.605 1
R23  20867913.953 1 111629281.077 8        48.100    20867913.211 1
G06  22068710.703 1 115971840.420 7        47.000    22068721.684 1  86602464.283 8        51.500  
G17  25721599.125 1 135167945.854 4        26.800                                                  
R24  24090193.656 1 128820920.421 5        34.900    24090190.988 1
G19  23859524.133 1 125382635.109 6        40.400                                                  
G24  22892220.367 1 120299550.507 7        42.900    22892231.656 1  89834067.126 8        49.900  
R13  20699501.039 1 110534015.346 5        35.800    20699499.730 1
G25  21540572.086 1 113196422.423 7        47.500    21540582.512 1  84529915.262 8        50.500  
G29  23605363.789 1 124047044.691 7        42.100                                                  
E13  23419534.922 1 123070540.745 8        48.900    23419539.594 1  91903374.329 8        52.900  
E01  25530973.336 1 134166186.620 8        48.500    25530977.719 1 100189055.339 7        47.500  
E21  23448793.500 1 123224301.747 8        52.500    23448798.492 1  92018196.700 8        52.900  
E27  25671255.836 1 134903364.372 7        47.600    25671261.410 1 100739551.256 7        47.400  
E15  26752247.156 1 140584043.708 6        40.300    26752253.527 1 104981636.103 7        44.400  
> 2020 05 14 22 03 00.0000000  0 21                     
R11  22373409.711 1 119556720.858 7        42.200    22373409.793 1
G12  20171768.781 1 106003396.811 8        50.200                                                  
G02  20940560.836 1 110043473.245 8        49.800                                                  
R06  23686780.820 1 126397154.505 6        36.200    23686778.539 1
R12  19399325.922 1 103627725.499 8        48.600    19399326.086 1
R21  23676065.016 1 126695440.688 6        40.300    23676064.770 1
G05  23343755.508 1 122672295.073 6        41.500                                                  
R22  19972617.625 1 106615099.460 7        47.300    19972616.297 1
R23  20856822.492 1 111569947.085 7        47.300    20856820.438 1
G06  22083737.813 1 116050810.186 7        46.200    22083749.242 1  86661435.211 8        51.400  
R24  24072035.609 1 128723866.160 5        30.700    24072037.270 1
G19  23875661.328 1 125467438.462 6        38.300                                                  
G24  22908839.617 1 120386883.191 7        42.700    22908850.516 1  89899283.048 8        49.900  
R13  20684151.945 1 110452050.346 5        34.600    20684150.098 1
G25  21526666.469 1 113123347.241 7        47.200    21526676.680 1  84475346.154 8        50.700  
G29  23591533.727 1 123974367.377 6        41.800                                                  
E13  23425331.633 1 123101000.580 8        50.100    23425335.871 1  91926120.314 8        52.900  
E01  25518601.734 1 134101174.309 7        47.600    25518606.242 1 100140507.195 7        47.700  
E21  23450660.453 1 123234111.586 8        52.600    23450665.211 1  92025522.228 8        52.900  
E27  25685976.086 1 134980721.653 7        46.200    25685981.875 1 100797318.004 7        47.300  
E15  26767001.195 1 140661571.605 6        40.900    26767007.086 1 105039530.271 7        44.700  
> 2020 05 14 22 03 30.0000000  0 21                     
R11  22397187.586 1 119683780.854 7        43.400    22397187.648 1
G12  20167510.750 1 105981017.642 8        50.700                                                  
G02  20946105.906 1 110072612.263 8        50.300                                                  
R06  23680148.125 1 126361779.130 5        34.300    23680147.465 1
R12  19407714.477 1 103672535.722 8        51.000    19407714.254 1
R21  23695471.648 1 126799282.455 6        40.400    23695470.559 1
G05  23325713.336 1 122577479.039 7        42.800                                                  
R22  19983059.055 1 106670835.925 8        49.200    19983057.547 1
R23  20845804.773 1 111511014.628 8        48.000    20845804.324 1
G06  22098824.695 1 116130087.976 7        46.600    22098835.168 1  86720636.135 8        51.200  
R24  24053927.859 1 128627011.284 5        30.000    24053925.605 1
G19  23891804.063 1 125552268.575 6        39.400                                                  
G24  22925499.359 1 120474431.671 7        42.000    22925510.020 1  89964660.081 8        49.100  
R13  20668909.750 1 110370659.625 5        34.700    20668908.230 1
G25  21512816.898 1 113050564.660 7        47.600    21512826.641 1  84420995.548 8        50.900  
G29  23577724.742 1 123901800.581 6        41.700                                                  
E13  23431173.805 1 123131702.240 8        49.400    23431178.137 1  91949046.881 8        52.800  
E01  25506268.773 1 134036364.774 8        48.500    25506273.262 1 100092110.483 7        47.600  
E21  23452598.984 1 123244297.503 8        51.900    23452603.551 1  92033128.584 8        52.700  
E27  25700736.430 1 135058286.834 7        46.800    25700741.840 1 100855240.011 7        47.100  
E15  26781753.953 1 140739107.386 6        40.800    26781761.773 1 105097430.339 7        45.200  
> 2020 05 14 22 04 00.0000000  0 21                     
R11  22421015.156 1 119811095.398 7        44.200    22421013.563 1
G12  20163335.906 1 105959079.950 8        50.800                                                  
G02  20951727.180 1 110102151.373 8        50.300                                                  
R06  23673635.172 1 126327019.304 5        34.500    23673633.711 1
R12  19416244.156 1 103718097.063 8        52.000    19416243.898 1
R21  23714862.320 1 126903040.921 6        40.000    23714860.422 1
G05  23307697.719 1 122482811.997 7        42.100                                                  
R22  19993557.289 1 106726877.002 8        49.600    19993556.195 1
R23  20834862.836 1 111452483.160 8        48.200    20834861.930 1
G06  22113968.297 1 116209670.724 7        46.600    22113979.078 1  86780064.811 8        50.900  
R24  24035851.289 1 128530356.451 5        30.600    24035851.512 1
G19  23907951.969 1 125637124.261 6        40.900                                                  
G24  22942199.539 1 120562192.362 6        41.800    22942210.176 1  90030195.643 8        49.200  
R13  20653775.680 1 110289846.802 5        34.700    20653774.316 1
G25  21499022.633 1 112978076.448 7        47.500    21499032.613 1  84366864.766 8        51.200  
G29  23563936.781 1 123829343.735 7        43.000                                                  
E13  23437061.859 1 123162643.935 8        49.900    23437066.098 1  91972152.684 8        52.900  
E01  25493974.773 1 133971759.176 8        49.000    25493979.113 1 100043866.070 7        47.200  
E21  23454608.398 1 123254859.435 8        53.500    23454613.281 1  92041015.730 8        52.700  
E27  25715535.656 1 135136058.494 7        47.400    25715541.137 1 100913316.195 7        47.300  
E15  26796509.063 1 140816649.472 6        39.100    26796517.707 1 105155335.109 7        45.100  
> 2020 05 14 22 04 30.0000000  0 21                     
R11  22444884.383 1 119938661.381 7        42.500    22444884.195 1
G12  20159245.938 1 105937585.967 8        51.100                                                  
G02  20957424.023 1 110132089.701 8        49.600                                                  
R06  23667235.758 1 126292878.093 5        33.600    23667235.418 1
R12  19424913.578 1 103764409.085 8        51.000    19424913.531 1
R21  23734235.047 1 127006715.491 6        37.600    23734233.559 1
G05  23289712.711 1 122388297.906 6        41.700                                                  
R22  20004112.609 1 106783221.023 8        49.100    20004111.711 1
R23  20823997.688 1 111394352.730 8        48.900    20823996.090 1
G06  22129170.133 1 116289556.691 7        46.500    22129180.391 1  86839719.898 8        50.400  
R24  24017813.586 1 128433903.350 5        33.900    24017814.680 1
G19  23924105.539 1 125722005.808 6        40.900                                                  
G24  22958939.844 1 120650162.513 6        41.600    22958950.938 1  90095887.589 8        49.500  
R13  20638752.445 1 110209616.364 5        35.000    20638749.980 1
G25  21485284.547 1 112905885.636 7        46.600    21485295.402 1  84312956.053 8        51.400  
G29  23550169.969 1 123756997.833 7        42.100                                                  
E13  23442995.477 1 123193825.121 8        50.300    23442999.840 1  91995437.349 8        52.900  
E01  25481720.055 1 133907359.913 8        48.500    25481724.090 1  99995775.737 7        47.400  
E21  23456690.242 1 123265798.586 8        52.100    23456695.094 1  92049184.563 8        52.800  
E27  25730374.289 1 135214036.314 7        46.700    25730380.379 1 100971546.356 7        46.700  
E15  26811266.875 1 140894197.586 6        40.700    26811274.277 1 105213244.368 7        44.800  
> 2020 05 14 22 05 00.0000000  0 22                     
R11  22468803.141 1 120066474.927 7        43.600    22468803.434 1
G12  20155240.609 1 105916536.643 8        51.900                                                  
G02  20963196.914 1 110162425.318 8        50.500                                                  
R06  23660955.672 1 126259357.228 5        34.600    23660954.336 1
R07  24174913.648 1 129410231.66114        29.900                  
R12  19433723.500 1 103811469.631 8        51.900    19433723.219 1
R21  23753591.031 1 127110304.261 6        38.000    23753591.938 1
G05  23271757.477 1 122293939.455 7        43.600                                                  
R22  20014724.023 1 106839864.694 8        49.600    20014722.820 1
R23  20813204.422 1 111336623.090 8        49.000    20813203.574 1
G06  22144429.414 1 116369742.765 7        47.100    22144439.914 1  86899599.099 8        50.500  
R24  23999814.633 1 128337652.182 6        37.500    23999816.063 1
G19  23940261.852 1 125806912.365 6        40.900                                                  
G24  22975719.359 1 120738339.173 6        41.400    22975730.887 1  90161733.749 8        50.000  
R13  20623836.078 1 110129971.745 5        34.300    20623834.332 1
G25  21471603.977 1 112833993.965 7        46.300    21471614.895 1  84259270.743 8        51.700  
G29  23536424.898 1 123684762.208 7        43.500                                                  
E13  23448974.094 1 123225244.007 8        50.300    23448978.594 1  92018899.497 8        53.100  
E01  25469504.750 1 133843168.151 8        48.900    25469508.652 1  99947840.350 7        46.800  
E21  23458843.586 1 123277114.837 8        53.000    23458848.629 1  92057635.010 8        52.900  
E27  25745251.867 1 135292218.798 7        47.300    25745257.762 1 101029929.333 7        46.800  
E15  26826025.039 1 140971750.016 6        41.400    26826032.004 1 105271156.893 7        45.600  
> 2020 05 14 22 05 30.0000000  0 22                     
R11  22492766.438 1 120194532.243 7        42.400    22492766.898 1
G12  20151319.961 1 105895933.278 8        51.500                                                  
G02  20969044.930 1 110193156.095 8        50.000                                                  
R06  23654791.758 1 126226459.021 5        35.600    23654789.328 1
R07  24157612.578 1 129317571.281 5        30.900    24157611.043 1
R12  19442673.648 1 103859277.490 8        51.900    19442673.320 1
R21  23772935.734 1 127213805.704 6        38.700    23772934.484 1
G05  23253831.758 1 122199740.352 7        43.300                                                  
R22  20025390.109 1 106896805.380 8        49.300    20025389.566 1
R23  20802487.719 1 111279293.707 8        48.900    20802486.660 1
G06  22159744.594 1 116450226.217 7        47.300    22159755.699 1  86959700.368 8        50.400  
R24  23981854.523 1 128241603.756 6        39.200    23981854.711 1
G19  23956421.828 1 125891843.173 6        40.100                                                  
G24  22992537.695 1 120826719.053 6        41.800    22992548.563 1  90227731.627 8        49.900  
R13  20609031.898 1 110050916.482 5        34.500    20609030.367 1
G25  21457981.500 1 112762403.555 7        47.000    21457991.738 1  84205810.395 8        51.600  
G29  23522698.719 1 123612636.841 7        43.500                                                  
E13  23454997.789 1 123256899.095 8        50.300    23455002.438 1  92042538.036 8        52.900  
E01  25457329.367 1 133779185.365 8        49.400    25457333.320 1  99900061.016 7        47.100  
E21  23461068.852 1 123288808.426 8        53.100    23461074.086 1  92066367.230 8        53.000  
E27  25760168.461 1 135370604.722 7        47.400    25760174.316 1 101088464.224 7        46.800  
E15  26840784.047 1 141049305.659 6        41.800    26840790.422 1 105329071.761 7        44.900  
> 2020 05 14 22 06 00.0000000  0 22                     
R11  22516774.445 1 120322829.846 6        41.700    22516775.211 1
G12  20147484.000 1 105875777.372 8        52.100                                                  
G02  20974967.320 1 110224280.448 8        51.000                                                  
R06  23648742.328 1 126194185.669 5        35.500    23648740.594 1
R07  24140335.820 1 129225099.872 5        32.400    24140335.844 1
R12  19451762.945 1 103907831.032 8        51.900    19451762.277 1
R21  23792260.016 1 127317218.618 6        37.400    23792258.219 1
G05  23235936.133 1 122105703.325 7        42.400                                                  
R22  20036112.836 1 106954040.161 8        49.600    20036111.363 1
R23  20791846.086 1 111222364.862 8        49.800    20791844.641 1
G06  22175116.508 1 116531004.576 7        47.300    22175127.023 1  87020021.849 8        50.300  
R24  23963930.148 1 128145759.022 6        36.100    23963930.598 1
G19  23972589.430 1 125976797.696 6        40.600                                                  
G24  23009393.789 1 120915299.509 6        41.600    23009405.754 1  90293879.324 8        50.300  
R13  20594340.188 1 109972454.514 5        35.300    20594337.363 1
G25  21444415.750 1 112691116.770 7        46.800    21444426.145 1  84152576.763 8        51.400  
G29  23508993.555 1 123540621.537 7        43.600                                                  
E13  23461066.445 1 123288789.193 8        49.800    23461070.961 1  92066352.079 8        52.900  
E01  25445193.781 1 133715413.309 8        48.900    25445197.992 1  99852439.046 7        47.300  
E21  23463365.758 1 123300879.851 9        54.000    23463370.941 1  92075381.589 8        52.800  
E27  25775123.484 1 135449193.132 7        46.600    25775129.883 1 101147150.343 7        47.400  
E15  26855542.430 1 141126863.459 6        40.800    26855549.516 1 105386988.275 7        45.300  
> 2020 05 14 22 06 30.0000000  0 22                     
R11  22540830.500 1 120451364.748 7        43.100    22540830.293 1
G12  20143734.328 1 105856070.771 8        52.300                                                  
G02  20980964.539 1 110255796.789 8        51.100                                                  
R06  23642813.969 1 126162540.271 6        36.100    23642811.090 1
R07  24123096.828 1 129132809.53515        30.700    24123095.477 1
R12  19460991.625 1 103957128.804 8        51.700    19460991.016 1
R21  23811567.703 1 127420542.137 6        37.700    23811566.449 1
G05  23218073.492 1 122011831.663 7        42.900                                                  
R22  20046889.414 1 107011567.096 8        49.900    20046888.262 1
R23  20781279.156 1 111165836.025 8        49.400    20781277.242 1
G06  22190544.391 1 116612075.551 8        48.200    22190553.781 1  87080561.858 8        50.000  
R24  23946045.000 1 128050118.937 5        34.600    23946045.082 1
G19  23988761.469 1 126061776.296 7        42.500                                                  
G24  23026288.414 1 121004077.422 7        42.800    23026299.582 1  90360174.455 8        50.500  
R13  20579756.773 1 109894589.628 5        35.400    20579755.703 1
G25  21430908.484 1 112620136.138 7        47.000    21430918.738 1  84099571.775 8        51.200  
G29  23495310.719 1 123468716.784 7        43.000                                                  
E13  23467179.383 1 123320913.253 8        50.500    23467183.945 1  92090340.821 8        52.900  
E01  25433098.836 1 133651853.896 8        49.200    25433102.879 1  99804975.852 7        47.300  
E21  23465735.281 1 123313329.718 8        53.300    23465740.023 1  92084678.571 8        52.800  
E27  25790117.070 1 135527983.257 7        46.800    25790123.555 1 101205987.070 7        47.900  
E15  26870301.500 1 141204422.674 6        41.900    26870308.043 1 105444905.839 7        44.500  
> 2020 05 14 22 07 00.0000000  0 22                     
R11  22564928.383 1 120580132.930 7        43.400    22564927.516 1
G12  20140069.516 1 105836814.759 8        52.200                                                  
G02  20987036.266 1 110287703.337 8        50.100                                                  
R06  23636996.680 1 126131524.865 5        33.700    23636996.469 1
R07  24105891.516 1 129040704.525 5        34.400    24105889.488 1
R12  19470358.297 1 104007169.382 8        51.600    19470358.297 1
R21  23830859.328 1 127523774.577 6        39.200    23830858.973 1
G05  23200243.000 1 121918128.603 7        43.800                                                  
R22  20057720.211 1 107069383.004 8        49.900    20057718.832 1
R23  20770785.633 1 111109706.954 8        49.500    20770784.000 1
G06  22206026.117 1 116693436.378 7        47.700    22206035.906 1  87141318.311 8        49.900  
R24  23928197.992 1 127954684.392 6        36.300    23928198.441 1
G19  24004937.539 1 126146777.958 6        40.600                                                  
G24  23043217.938 1 121093050.419 6        41.900    23043230.746 1  90426615.264 8        50.200  
R13  20565287.141 1 109817325.165 5        35.900    20565286.203 1
G25  21417460.250 1 112549463.761 7        47.300    21417470.246 1  84046796.963 8        51.100  
G29  23481650.117 1 123396922.560 7        43.900                                                  
E13  23473336.742 1 123353269.800 8        50.100    23473341.133 1  92114503.188 8        52.800  
E01  25421044.195 1 133588508.606 8        48.800    25421048.910 1  99757672.581 7        47.100  
E21  23468176.484 1 123326158.262 8        53.300    23468181.090 1  92094258.319 8        52.700  
E27  25805148.086 1 135606973.843 7        47.100    25805154.102 1 101264973.500 7        46.800  
E15  26885061.219 1 141281982.017 6        41.700    26885067.281 1 105502823.511 7        44.300  
> 2020 05 14 22 07 30.0000000  0 22                     
R11  22589068.766 1 120709131.335 7        44.100    22589068.613 1
G12  20136491.797 1 105818011.327 8        52.200                                                  
G02  20993181.422 1 110319998.928 8        50.500                                                  
R06  23631305.211 1 126101141.902 5        33.300    23631302.824 1
R07  24088719.281 1 128948789.132 5        35.000    24088718.574 1
R12  19479864.656 1 104057951.274 8        51.000    19479864.879 1
R21  23850134.375 1 127626915.045 6        40.200    23850133.313 1
G05  23182443.734 1 121824597.693 7        43.300                                                  
R22  20068605.656 1 107127485.783 8        49.800    20068603.668 1
R23  20760367.148 1 111053977.839 8        49.300    20760366.043 1
G06  22221562.766 1 116775084.855 7        47.300    22221573.480 1  87202289.556 8        50.000  
R24  23910391.148 1 127859456.360 6        38.500    23910390.754 1
G19  24021115.242 1 126231802.362 6        39.100                                                  
G24  23060185.414 1 121182215.404 7        42.000    23060198.270 1  90493199.474 8        50.100  
R13  20550931.852 1 109740665.511 5        34.900    20550930.238 1
G25  21404070.000 1 112479102.184 7        47.000    21404080.789 1  83994254.237 8        51.000  
G29  23468008.617 1 123325238.755 7        43.400                                                  
E13  23479538.148 1 123385857.817 8        49.800    23479542.387 1  92138838.391 8        52.800  
E01  25409030.906 1 133525379.348 8        48.500    25409035.727 1  99710530.635 7        46.600  
E21  23470689.719 1 123339366.134 8        53.800    23470694.574 1  92104121.321 8        52.700  
E27  25820217.438 1 135686164.150 7        47.400    25820223.086 1 101324109.056 7        46.900  
E15  26899819.070 1 141359540.796 6        41.100    26899826.566 1 105560740.732 7        44.600  
> 2020 05 14 22 08 00.0000000  0 22                     
R11  22613251.438 1 120838356.132 7        43.900    22613251.285 1
G12  20132999.594 1 105799661.367 8        53.200                                                  
G02  20999401.422 1 110352681.476 8        50.800                                                  
R06  23625731.086 1 126071392.980 5        35.200    23625729.496 1
R07  24071584.555 1 128857067.807 5        33.800    24071583.012 1
R12  19489510.031 1 104109472.847 8        50.800    19489510.020 1
R21  23869391.344 1 127729962.128 6        39.200    23869390.277 1
G05  23164679.844 1 121731241.740 7        43.200                                                  
R22  20079543.578 1 107185872.347 8        49.500    20079541.555 1
R23  20750024.266 1 110998648.229 8        48.900    20750022.668 1
G06  22237155.063 1 116857018.168 7        47.200    22237164.961 1  87263473.520 8        49.900  
R24  23892621.734 1 127764435.230 6        41.600    23892621.863 1
G19  24037297.633 1 126316849.181 6        37.900                                                  
G24  23077189.711 1 121271569.214 7        42.400    23077202.148 1  90559924.650 8        50.400  
R13  20536690.344 1 109664614.318 5        35.800    20536688.688 1
G25  21390740.789 1 112409053.490 7        47.200    21390750.926 1  83941945.154 8        51.200  
G29  23454387.695 1 123253665.189 7        43.000                                                  
E13  23485783.320 1 123418675.783 8        50.400    23485787.422 1  92163345.315 8        52.600  
E01  25397059.445 1 133462467.609 8        48.500    25397064.094 1  99663551.112 7        46.500  
E21  23473275.313 1 123352953.421 8        53.400    23473280.273 1  92114267.669 8        52.700  
E27  25835324.344 1 135765552.883 7        46.500    25835330.152 1 101383392.808 7        46.400  
E15  26914578.555 1 141437097.686 7        42.600    26914585.027 1 105618656.586 7        43.900  
> 2020 05 14 22 08 30.0000000  0 22                     
R11  22637475.234 1 120967803.837 7        43.300    22637475.500 1
G12  20129594.430 1 105781766.356 8        52.700                                                  
G02  21005694.617 1 110385749.245 8        50.900                                                  
R06  23620274.758 1 126042280.832 5        35.700    23620273.496 1
R07  24054483.945 1 128765544.793 5        33.800    24054485.594 1
R12  19499293.758 1 104161732.220 8        51.000    19499293.219 1
R21  23888631.766 1 127832914.579 6        40.400    23888629.773 1
G05  23146948.320 1 121638064.331 7        43.500                                                  
R22  20090533.891 1 107244540.272 8        49.100    20090532.219 1
R23  20739755.227 1 110943717.672 8        48.500    20739753.664 1
G06  22252799.352 1 116939233.768 7        46.000    22252810.602 1  87324868.277 8        50.200  
R24  23874890.914 1 127669622.141 6        39.800    23874890.570 1
G19  24053486.859 1 126401917.644 6        39.000                                                  
G24  23094227.680 1 121361109.151 6        41.300    23094240.074 1  90626788.840 8        49.700  
R13  20522563.211 1 109589174.771 5        35.400    20522561.398 1
G25  21377470.648 1 112339319.944 7        47.200    21377481.352 1  83889871.424 8        51.500  
G29  23440788.125 1 123182202.353 7        42.900                                                  
E13  23492071.422 1 123451722.389 8        50.600    23492075.957 1  92188022.988 8        52.700  
E01  25385129.445 1 133399775.023 8        49.000    25385133.801 1  99616735.244 7        47.300  
E21  23475932.836 1 123366920.486 8        53.700    23475938.023 1  92124697.618 8        52.900  
E27  25850469.141 1 135845138.980 7        45.900    25850475.695 1 101442823.910 7        46.800  
E15  26929336.086 1 141514651.697 6        41.300    26929342.695 1 105676570.267 7        43.800  
> 2020 05 14 22 09 00.0000000  0 22                     
R11  22661740.844 1 121097470.996 7        42.400    22661740.449 1
G12  20126275.672 1 105764328.123 8        52.100                                                  
G02  21012058.211 1 110419200.806 8        50.800                                                  
R06  23614937.820 1 126013807.741 5        35.500    23614936.813 1
R07  24037425.930 1 128674224.446 5        33.200    24037425.691 1
R12  19509214.133 1 104214728.052 8        51.000    19509213.992 1
R21  23907851.063 1 127935771.309 6        39.400    23907849.879 1
G05  23129251.016 1 121545068.901 7        43.300                                                  
R22  20101576.047 1 107303487.127 8        49.300    20101574.742 1
R23  20729561.328 1 110889186.168 8        48.600    20729560.000 1
G06  22268498.813 1 117021729.343 7        47.200    22268509.152 1  87386472.105 8        50.200  
R24  23857198.266 1 127575018.062 6        40.200    23857199.031 1
G19  24069680.242 1 126487007.882 6        38.900                                                  
G24  23111302.266 1 121450832.039 7        42.100    23111313.699 1  90693789.641 8        49.600  
R13  20508549.555 1 109514350.943 6        36.700    20508549.113 1
G25  21364261.789 1 112269904.015 7        47.600    21364271.801 1  83838034.881 8        51.400  
G29  23427211.258 1 123110850.162 7        42.500                                                  
E13  23498403.359 1 123484996.544 8        50.200    23498407.824 1  92212870.572 8        52.500  
E01  25373241.578 1 133337303.440 8        49.800    25373246.133 1  99570084.390 7        47.600  
E21  23478663.523 1 123381267.846 8        53.200    23478668.207 1  92135411.548 8        52.700  
E27  25865652.219 1 135924921.466 7        47.300    25865657.188 1 101502401.696 7        46.700  
E15  26944093.664 1 141592201.977 7        42.100    26944099.941 1 105734481.152 7        43.900  
> 2020 05 14 22 09 30.0000000  0 22                     
R11  22686045.094 1 121227354.172 7        42.500    22686045.797 1
G12  20123044.773 1 105747348.135 8        52.500                                                  
G02  21018498.305 1 110453034.019 8        51.400                                                  
R06  23609724.477 1 125985976.190 6        38.600    23609723.383 1
R07  24020408.969 1 128583111.223 5        32.800    24020408.484 1
R12  19519273.531 1 104268458.393 8        51.000    19519272.992 1
R21  23927055.844 1 128038531.107 6        40.500    23927054.199 1
G05  23111591.156 1 121452258.277 7        43.700                                                  
R22  20112670.117 1 107362710.208 8        49.200    20112668.750 1
R23  20719441.852 1 110835053.547 8        48.100    20719440.055 1
G06  22284248.789 1 117104502.270 7        46.600    22284259.980 1  87448283.052 8        49.800  
R24  23839548.242 1 127480623.511 6        40.500    23839548.008 1
G19  24085877.758 1 126572119.305 6        40.000                                                  
G24  23128410.781 1 121540735.216 7        42.700    23128422.121 1  90760925.066 8        49.800  
R13  20494654.266 1 109440146.231 5        35.900    20494653.363 1
G25  21351112.094 1 112200807.913 7        47.200    21351123.297 1  83786437.165 8        51.400  
G29  23413652.109 1 123039608.566 6        39.600                                                  
E13  23504778.164 1 123518496.878 8        50.600    23504782.605 1  92237887.049 8        52.400  
E01  25361396.094 1 133275054.438 8        50.200    25361400.430 1  99523599.772 7        47.300  
E21  23481465.953 1 123395995.751 8        53.000    23481470.848 1  92146409.650 8        52.700  
E27  25880870.648 1 136004899.318 7        46.200    25880876.266 1 101562125.361 7        45.900  
E15  26958850.086 1 141669747.413 7        42.000    26958857.410 1 105792388.446 7        44.600  
> 2020 05 14 22 10 00.0000000  0 22                     
R11  22710390.609 1 121357449.225 6        40.400    22710390.695 1
G12  20119900.781 1 105730827.077 8        51.900                                                  
G02  21025008.023 1 110487247.072 8        50.700                                                  
R06  23604629.633 1 125958787.578 6        38.000    23604627.699 1
R07  24003424.391 1 128492209.020 5        33.700    24003425.430 1
R12  19529468.945 1 104322921.102 8        51.600    19529468.203 1
R21  23946240.375 1 128141192.262 6        39.900    23946238.723 1
G05  23093965.148 1 121359635.819 7        42.600                                                  
R22  20123817.195 1 107422206.434 8        49.000    20123815.172 1
R23  20709396.313 1 110781318.613 7        47.900    20709395.055 1
G06  22300051.875 1 117187549.484 7        45.900    22300063.289 1  87510298.794 8        50.000  
R24  23821935.977 1 127386439.002 6        39.500    23821935.047 1
G19  24102075.813 1 126657250.723 6        39.400                                                  
G24  23145551.641 1 121630814.772 6        41.800    23145563.215 1  90828192.198 8        49.600  
R13  20480875.281 1 109366563.672 6        36.400    20480873.316 1
G25  21338026.539 1 112132033.427 8        48.000    21338035.691 1  83735079.618 8        51.400  
G29  23400118.648 1 122968476.960 7        42.200                                                  
E13  23511195.938 1 123552221.587 8        49.200    23511200.254 1  92263071.084 8        52.500  
E01  25349593.305 1 133213029.242 8        49.500    25349597.523 1  99477282.271 7        47.700  
E21  23484341.141 1 123411104.044 8        52.000    23484345.859 1  92157691.814 8        52.700  
E27  25896126.977 1 136085070.929 7        46.600    25896132.652 1 101621993.694 7        45.700  
E15  26973605.594 1 141747286.563 6        41.500    26973611.160 1 105850291.038 7        43.400  
> 2020 05 14 22 10 30.0000000  0 21                     
R11  22734775.164 1 121487753.487 6        41.000    22734775.883 1
G12  20116845.203 1 105714766.801 8        52.200                                                  
G02  21031590.516 1 110521838.668 8        51.100                                                  
R06  23599655.289 1 125932244.498 6        37.600    23599652.785 1
R12  19539801.031 1 104378114.902 8        52.300    19539800.797 1
R21  23965404.789 1 128243754.372 6        38.600    23965404.293 1
G05  23076375.813 1 121267205.171 7        43.800                                                  
R22  20135012.734 1 107481974.088 8        48.800    20135011.191 1
R23  20699425.203 1 110727981.953 8        48.000    20699423.742 1
G06  22315907.141 1 117270869.174 7        46.200    22315918.633 1  87572518.024 8        50.000  
R24  23804361.672 1 127292465.835 6        40.700    23804361.813 1
G19  24118279.281 1 126742402.712 6        37.900                                                  
G24  23162726.977 1 121721069.100 6        41.600    23162739.410 1  90895589.862 8        50.200  
R13  20467211.898 1 109293608.113 6        36.700    20467211.281 1
G25  21325000.242 1 112063583.578 7        47.200    21325010.031 1  83683964.483 8        51.300  
G29  23386602.953 1 122897455.994 6        39.600                                                  
E13  23517656.148 1 123586170.059 8        49.300    23517660.477 1  92288422.217 8        52.500  
E01  25337833.109 1 133151230.145 8        49.800    25337837.484 1  99431133.599 7        47.900  
E21  23487288.719 1 123426593.684 8        52.100    23487293.379 1  92169258.743 8        52.600  
E27  25911420.273 1 136165435.816 7        46.500    25911426.141 1 101682006.411 7        46.000  
E15  26988359.711 1 141824819.103 7        42.200    26988366.043 1 105908188.675 7        43.600  
> 2020 05 14 22 11 00.0000000  0 21                     
R11  22759200.094 1 121618263.025 6        41.800    22759200.063 1
G12  20113876.859 1 105699168.918 8        52.200                                                  
G02  21038245.445 1 110556806.848 8        50.300                                                  
R06  23594803.219 1 125906348.862 6        37.500    23594800.910 1
R12  19550270.125 1 104434037.944 8        51.300    19550269.715 1
R21  23984554.016 1 128346216.119 6        38.100    23984551.422 1
G05  23058822.477 1 121174969.242 7        42.600                                                  
R22  20146259.977 1 107542010.224 8        48.800    20146258.461 1
R23  20689529.391 1 110675043.140 8        48.800    20689527.746 1
G06  22331814.180 1 117354458.663 7        46.400    22331825.289 1  87634938.743 8        49.800  
R24  23786828.375 1 127198704.715 6        40.800    23786827.250 1
G19  24134487.000 1 126827574.617 6        37.700                                                  
G24  23179934.758 1 121811495.158 7        42.800    23179946.777 1  90963115.735 8        50.200  
R13  20453668.461 1 109221282.962 6        36.700    20453667.230 1
G25  21312036.672 1 111995460.499 7        47.200    21312046.547 1  83633093.366 8        51.600  
G29  23373109.805 1 122826545.957 6        41.400                                                  
E13  23524158.602 1 123620340.889 8        50.100    23524163.121 1  92313939.403 8        52.600  
E01  25326116.445 1 133089658.717 8        49.700    25326120.934 1  99385154.950 7        47.600  
E21  23490308.789 1 123442464.855 8        52.300    23490313.648 1  92181110.582 8        52.700  
E27  25926749.977 1 136245992.898 7        46.800    25926755.766 1 101742162.608 7        45.600  
E15  27003111.305 1 141902343.897 6        40.800    27003118.441 1 105966080.525 7        43.300  
> 2020 05 14 22 11 30.0000000  0 22                     
R11  22783658.930 1 121748974.292 6        40.200    22783659.742 1
G12  20110997.164 1 105684034.368 8        51.200                                                  
G02  21044970.875 1 110592150.013 8        50.000                                                  
R06  23590069.398 1 125881103.052 6        38.600    23590069.797 1
R07  23952724.000 1 128220785.612 5        33.300    23952723.734 1
R12  19560875.102 1 104490688.164 8        51.700    19560874.750 1
R21  24003678.305 1 128448576.084 6        37.400    24003680.000 1
G05  23041310.109 1 121082931.414 7        43.800                                                  
R22  20157556.227 1 107602312.258 8        49.100    20157555.094 1
R23  20679706.313 1 110622501.714 8        48.600    20679706.086 1
G06  22347772.008 1 117438315.327 7        46.300    22347783.059 1  87697558.933 8        50.200  
R24  23769331.758 1 127105156.203 6        39.800    23769332.684 1
G19  24150699.414 1 126912766.180 6        37.800                                                  
G24  23197173.336 1 121902088.777 6        41.400    23197185.488 1  91030766.753 8        49.700  
R13  20440242.797 1 109149591.331 6        36.100    20440241.602 1
G25  21299136.313 1 111927666.316 7        47.200    21299146.133 1  83582467.843 8        52.100  
G29  23359637.516 1 122755746.506 6        40.200                                                  
E13  23530703.484 1 123654732.626 8        49.100    23530707.488 1  92339621.547 8        52.500  
E01  25314443.141 1 133028316.442 8        49.600    25314447.922 1  99339347.407 8        48.300  
E21  23493401.375 1 123458717.667 8        52.000    23493406.430 1  92193247.417 8        52.800  
E27  25942116.344 1 136326740.832 7        46.200    25942121.281 1 101802461.343 7        46.000  
E15  27017863.414 1 141979859.823 6        41.900    27017869.113 1 106023965.752 7        43.600  
> 2020 05 14 22 12 00.0000000  0 22                     
R11  22808159.539 1 121879883.805 6        41.300    22808158.660 1
G12  20108205.016 1 105669364.747 8        51.100                                                  
G02  21051767.336 1 110627866.218 8        50.000                                                  
R06  23585461.531 1 125856508.336 6        38.400    23585460.195 1
R07  23935913.172 1 128130772.17815        33.900    23935911.277 1
R12  19571616.133 1 104548063.733 8        51.400    19571615.770 1
R21  24022790.367 1 128550833.322 5        35.900    24022788.441 1
G05  23023833.055 1 120991094.890 7        43.900                                                  
R22  20168902.055 1 107662877.302 8        48.300    20168901.063 1
R23  20669958.156 1 110570356.903 7        47.700    20669957.742 1
G06  22363779.047 1 117522436.453 7        45.400    22363790.488 1  87760376.668 8        49.800  
R24  23751876.789 1 127011821.056 6        38.300    23751877.621 1
G19  24166915.406 1 126997976.386 6        38.800                                                  
G24  23214445.695 1 121992848.244 7        42.400    23214456.676 1  91098541.622 8        49.800  
R13  20426936.773 1 109078536.124 6        36.100    20426934.793 1
G25  21286298.492 1 111860203.167 7        46.300    21286308.336 1  83532089.549 8        52.200  
G29  23346183.422 1 122685057.651 6        38.800                                                  
E13  23537289.430 1 123689343.836 8        48.900    23537293.883 1  92365467.586 8        52.300  
E01  25302814.031 1 132967204.887 7        47.900    25302818.883 1  99293712.182 7        47.700  
E21  23496566.930 1 123475352.265 8        51.000    23496571.820 1  92205669.349 8        52.800  
E27  25957518.063 1 136407678.434 7        46.400    25957523.598 1 101862901.698 7        46.500  
E15  27032611.773 1 142057365.730 7        42.200    27032618.160 1 106081843.502 7        43.700  
> 2020 05 14 22 12 30.0000000  0 22                     
R11  22832693.188 1 122010987.564 6        40.900    22832692.820 1
G12  20105502.195 1 105655160.871 8        52.300                                                  
G02  21058634.727 1 110663953.201 8        50.600                                                  
R06  23580973.766 1 125832566.969 6        38.500    23580973.910 1
R07  23919140.891 1 128040992.634 5        35.900    23919140.535 1
R12  19582492.328 1 104606162.385 8        52.000    19582492.000 1
R21  24041882.742 1 128652986.407 6        38.100    24041879.883 1
G05  23006395.719 1 120899462.239 7        42.600                                                  
R22  20180297.492 1 107723702.918 8        48.900    20180295.602 1
R23  20660285.805 1 110518608.351 8        49.100    20660284.113 1
G06  22379836.477 1 117606819.370 7        45.900    22379848.105 1  87823389.867 8        50.100  
R24  23734464.945 1 126918699.533 6        38.900    23734463.914 1
G19  24183132.430 1 127083204.829 6        37.300                                                  
G24  23231746.570 1 122083770.230 6        41.600    23231758.387 1  91166437.851 8        49.400  
R13  20413748.742 1 109008121.160 6        36.300    20413748.332 1
G25  21273523.469 1 111793073.203 7        46.600    21273533.754 1  83481960.059 8        52.100  
G29  23332753.875 1 122614478.862 6        39.600                                                  
E13  23543917.172 1 123724173.027 8        49.100    23543921.609 1  92391476.399 8        52.200  
E01  25291229.398 1 132906325.516 8        48.900    25291233.988 1  99248250.342 8        48.200  
E21  23499805.000 1 123492368.693 8        52.200    23499809.961 1  92218376.417 8        52.600  
E27  25972955.719 1 136488804.389 7        46.900    25972961.309 1 101923482.704 7        45.500  
E15  27047358.789 1 142134860.471 7        42.700    27047365.398 1 106139712.935 7        44.300  
> 2020 05 14 22 13 00.0000000  0 22                     
R11  22857262.742 1 122142282.414 6        39.800    22857262.496 1
G12  20102888.313 1 105641424.556 8        51.300                                                  
G02  21065572.648 1 110700409.517 8        51.300                                                  
R06  23576612.320 1 125809280.604 6        38.600    23576610.941 1
R07  23902412.297 1 127951450.716 5        35.100    23902411.867 1
R12  19593503.492 1 104664982.191 8        51.700    19593503.023 1
R21  24060953.039 1 128755034.211 6        38.000    24060949.945 1
G05  22988999.438 1 120808037.228 7        43.300                                                  
R22  20191739.164 1 107784786.635 8        48.300    20191738.387 1
R23  20650685.086 1 110467256.141 8        48.100    20650684.238 1
G06  22395943.477 1 117691461.759 7        45.400    22395955.000 1  87886596.815 8        50.300  
R24  23717091.430 1 126825792.717 6        39.500    23717090.523 1
G19  24199352.438 1 127168451.589 5        35.200                                                  
G24  23249079.625 1 122174851.510 6        41.900    23249090.805 1  91234453.003 8        49.600  
R13  20400685.188 1 108938350.567 6        36.700    20400682.441 1
G25  21260813.203 1 111726278.937 7        46.300    21260823.277 1  83432081.223 8        52.300  
G29  23319344.297 1 122544010.449 6        40.300                                                  
E13  23550586.258 1 123759219.143 8        49.100    23550590.531 1  92417647.205 8        52.300  
E01  25279689.016 1 132845680.205 8        48.300    25279693.762 1  99202963.264 8        48.300  
E21  23503116.203 1 123509767.437 8        51.700    23503120.883 1  92231368.982 8        52.600  
E27  25988428.492 1 136570117.768 7        45.300    25988434.168 1 101984203.690 7        46.000  
E15  27062102.344 1 142212343.326 6        41.200    27062109.660 1 106197573.474 7        44.300  
> 2020 05 14 22 13 30.0000000  0 22                     
R11  22881866.711 1 122273764.716 6        39.900    22881867.508 1
G12  20100363.688 1 105628156.961 8        53.600                                                  
G02  21072578.664 1 110737233.276 8        50.800                                                  
R06  23572368.188 1 125786651.389 6        37.500    23572368.199 1
R07  23885732.016 1 127862150.405 5        33.400    23885730.563 1
R12  19604648.773 1 104724521.403 8        52.200    19604648.750 1
R21  24080001.055 1 128856975.977 6        36.800    24079999.934 1
G05  22971640.563 1 120716823.185 7        43.000                                                  
R22  20203231.133 1 107846126.016 8        49.900    20203229.613 1
R23  20641159.414 1 110416299.321 8        49.500    20641158.367 1
G06  22412099.352 1 117776361.073 7        46.000    22412110.828 1  87949995.631 8        50.300  
R24  23699756.125 1 126733101.145 6        39.600    23699756.246 1
G19  24215578.836 1 127253716.157 6        36.700                                                  
G24  23266441.375 1 122266089.397 6        41.000    23266452.941 1  91302585.126 8        49.900  
R13  20387740.695 1 108869227.745 6        36.600    20387738.141 1
G25  21248166.250 1 111659822.560 7        47.400    21248176.992 1  83382454.726 8        52.400  
G29  23305955.602 1 122473652.789 6        39.200                                                  
E13  23557296.398 1 123794480.827 8        50.100    23557300.418 1  92443978.977 8        52.300  
E01  25268192.977 1 132785270.573 8        49.600    25268197.984 1  99157852.188 8        48.700  
E21  23506499.859 1 123527548.678 8        53.600    23506504.516 1  92244647.168 8        52.800  
E27  26003938.047 1 136651617.430 7        47.300    26003943.355 1 102045063.768 7        45.900  
E15  27076844.492 1 142289813.273 6        41.500    27076851.480 1 106255424.383 7        44.000  
> 2020 05 14 22 14 00.0000000  0 22                     
R11  22906507.039 1 122405431.342 6        40.800    22906507.840 1
G12  20097928.359 1 105615360.077 8        52.000                                                  
G02  21079656.273 1 110774423.229 8        50.300                                                  
R06  23568253.977 1 125764681.361 6        37.800    23568252.234 1
R07  23869095.617 1 127773096.971 5        34.500    23869093.758 1
R12  19615929.594 1 104784777.939 8        51.300    19615928.867 1
R21  24099030.664 1 128958810.714 6        37.200    24099028.672 1
G05  22954325.398 1 120625823.859 7        43.600                                                  
R22  20214769.367 1 107907718.815 8        48.200    20214767.500 1
R23  20631707.328 1 110365738.228 8        48.900    20631706.602 1
G06  22428304.563 1 117861515.199 7        46.600    22428315.047 1  88013584.733 8        49.800  
R24  23682463.219 1 126640626.223 6        38.900    23682462.387 1
G19  24231807.727 1 127338998.551 6        38.700                                                  
G24  23283832.438 1 122357481.838 6        41.000    23283844.969 1  91370832.700 8        49.700  
R13  20374917.148 1 108800756.211 6        36.300    20374915.813 1
G25  21235584.852 1 111593706.749 7        46.300    21235595.563 1  83333082.551 8        52.100  
G29  23292588.055 1 122403405.998 6        40.200                                                  
E13  23564046.977 1 123829957.172 8        50.000    23564051.512 1  92470471.053 8        52.100  
E01  25256742.570 1 132725098.670 8        48.800    25256747.672 1  99112918.651 7        47.900  
E21  23509956.273 1 123545713.054 8        53.100    23509961.191 1  92258211.464 8        52.600  
E27  26019482.438 1 136733302.689 7        46.600    26019487.727 1 102106062.437 7        45.600  
E15  27091584.078 1 142367269.762 6        40.500    27091590.719 1 106313265.235 7        44.300  
> 2020 05 14 22 14 30.0000000  0 22                     
R11  22931181.422 1 122537277.556 6        39.500    22931180.512 1
G12  20095582.781 1 105603033.759 8        52.200                                                  
G02  21086802.648 1 110811976.386 8        50.300                                                  
R06  23564260.648 1 125743371.412 6        37.500    23564259.023 1
R07  23852509.000 1 127684293.131 5        31.000    23852505.215 1
R12  19627343.461 1 104845748.835 8        50.600    19627342.883 1
R21  24118043.258 1 129060536.508 6        38.700    24118041.277 1
G05  22937048.961 1 120535040.908 7        42.800                                                  
